country,state,city,station,latitude,longitude
India,Andhra_Pradesh,Anantapur,"Gulzarpet, Anantapur - APPCB",14.675886,77.593027
India,Andhra_Pradesh,Anantapur,"Gulzarpet, Anantapur - APPCB",14.675886,77.593027
India,Andhra_Pradesh,Anantapur,"Gulzarpet, Anantapur - APPCB",14.675886,77.593027
India,Andhra_Pradesh,Chittoor,"Gangineni Cheruvu, Chittoor - APPCB",13.204880,79.097889
India,Andhra_Pradesh,Chittoor,"Gangineni Cheruvu, Chittoor - APPCB",13.204880,79.097889
India,Andhra_Pradesh,Chittoor,"Gangineni Cheruvu, Chittoor - APPCB",13.204880,79.097889
India,Andhra_Pradesh,Kadapa,"Yerramukkapalli, Kadapa - APPCB",14.465052,78.824187
India,Andhra_Pradesh,Kadapa,"Yerramukkapalli, Kadapa - APPCB",14.465052,78.824187
India,Andhra_Pradesh,Kadapa,"Yerramukkapalli, Kadapa - APPCB",14.465052,78.824187
India,Andhra_Pradesh,Rajamahendravaram,"Anand Kala Kshetram, Rajamahendravaram - APPCB",16.9872867,81.7363176
India,Andhra_Pradesh,Vijayawada,"HB Colony, Vijayawada - APPCB",16.536107,80.594233
India,Andhra_Pradesh,Vijayawada,"Kanuru, Vijayawada - APPCB",16.486692,80.699436
India,Andhra_Pradesh,Vijayawada,"Kanuru, Vijayawada - APPCB",16.486692,80.699436
India,Andhra_Pradesh,Visakhapatnam,"GVM Corporation, Visakhapatnam - APPCB",17.72,83.3
India,Andhra_Pradesh,Visakhapatnam,"GVM Corporation, Visakhapatnam - APPCB",17.72,83.3
India,Assam,Byrnihat,"Central Academy for SFS, Byrnihat - PCBA",26.071318,91.87488
India,Assam,Byrnihat,"Central Academy for SFS, Byrnihat - PCBA",26.071318,91.87488
India,Assam,Guwahati,"LGBI Airport, Guwahati - PCBA",26.10887,91.589544
India,Assam,Guwahati,"Railway Colony, Guwahati - PCBA",26.181742,91.78063
India,Assam,Guwahati,"Railway Colony, Guwahati - PCBA",26.181742,91.78063
India,Assam,Nagaon,"Christianpatty, Nagaon - PCBA",26.349082,92.68449
India,Assam,Nagaon,"Christianpatty, Nagaon - PCBA",26.349082,92.68449
India,Assam,Nagaon,"Christianpatty, Nagaon - PCBA",26.349082,92.68449
India,Assam,Nalbari,"Bata Chowk, Nalbari - PCBA",26.446912,91.439057
India,Assam,Sivasagar,"Girls College, Sivasagar - PCBA",26.987634,94.636574
India,Assam,Sivasagar,"Girls College, Sivasagar - PCBA",26.987634,94.636574
India,Bihar,Arrah,"New DM Office, Arrah - BSPCB",25.5626095,84.663264
India,Bihar,Bettiah,"Kamalnath Nagar, Bettiah - BSPCB",26.80365,84.51954
India,Bihar,Bhagalpur,"DM Office_Kachari Chowk, Bhagalpur - BSPCB",25.251013,86.989001
India,Bihar,Bhagalpur,"Mayaganj, Bhagalpur - BSPCB",25.265194,87.012947
India,Bihar,Bhagalpur,"Mayaganj, Bhagalpur - BSPCB",25.265194,87.012947
India,Bihar,Bhagalpur,"Mayaganj, Bhagalpur - BSPCB",25.265194,87.012947
India,Bihar,Bihar Sharif,"D M Colony, Bihar Sharif - BSPCB",25.204762,85.514960
India,Bihar,Chhapra,"Darshan Nagar, Chhapra - BSPCB",25.7808257,84.7446768
India,Bihar,Gaya,"Kareemganj, Gaya - BSPCB",24.792403,84.992416
India,Bihar,Kishanganj,"SDM Office_Khagra, Kishanganj - BSPCB",26.0881305,87.93840336
India,Bihar,Manguraha,"Forest Rest House, Manguraha - BSPCB",27.308328,84.531742
India,Bihar,Manguraha,"Forest Rest House, Manguraha - BSPCB",27.308328,84.531742
India,Bihar,Motihari,"Gandak Colony, Motihari - BSPCB",26.63086,84.90051
India,Bihar,Motihari,"Gandak Colony, Motihari - BSPCB",26.63086,84.90051
India,Bihar,Motihari,"Gandak Colony, Motihari - BSPCB",26.63086,84.90051
India,Bihar,Muzaffarpur,"Buddha Colony, Muzaffarpur - BSPCB",26.11442,85.39813
India,Bihar,Muzaffarpur,"MIT-Daudpur Kothi, Muzaffarpur - BSPCB",26.1403345,85.3650192
India,Bihar,Muzaffarpur,"MIT-Daudpur Kothi, Muzaffarpur - BSPCB",26.1403345,85.3650192
India,Bihar,Patna,"DRM Office Danapur, Patna - BSPCB",25.586562,85.043586
India,Bihar,Patna,"Govt. High School Shikarpur, Patna - BSPCB",25.592539,85.227158
India,Bihar,Patna,"Govt. High School Shikarpur, Patna - BSPCB",25.592539,85.227158
India,Bihar,Patna,"Muradpur, Patna - BSPCB",25.619651,85.147382
India,Bihar,Patna,"Rajbansi Nagar, Patna - BSPCB",25.599486,85.113666
India,Bihar,Patna,"Rajbansi Nagar, Patna - BSPCB",25.599486,85.113666
India,Bihar,Purnia,"Mariam Nagar, Purnia - BSPCB",25.366336,87.117468
India,Bihar,Rajgir,"Dangi Tola, Rajgir - BSPCB",25.03280,85.41948
India,Bihar,Rajgir,"Dangi Tola, Rajgir - BSPCB",25.03280,85.41948
India,Bihar,Saharsa,"Police Line, Saharsa - BSPCB",25.892357,86.590325
India,Bihar,Saharsa,"Police Line, Saharsa - BSPCB",25.892357,86.590325
India,Chandigarh,Chandigarh,"Sector 22, Chandigarh - CPCC",30.735567,76.775714
India,Chandigarh,Chandigarh,"Sector 22, Chandigarh - CPCC",30.735567,76.775714
India,Chandigarh,Chandigarh,"Sector-25, Chandigarh - CPCC",30.751462,76.762879
India,Chandigarh,Chandigarh,"Sector-25, Chandigarh - CPCC",30.751462,76.762879
India,Chandigarh,Chandigarh,"Sector-25, Chandigarh - CPCC",30.751462,76.762879
India,Chandigarh,Chandigarh,"Sector-53, Chandigarh - CPCC",30.719859,76.738637
India,Chhattisgarh,Bhilai,"32Bungalows, Bhilai - CECB",21.194815,81.314770
India,Chhattisgarh,Bhilai,"32Bungalows, Bhilai - CECB",21.194815,81.314770
India,Chhattisgarh,Bhilai,"Civic Center, Bhilai - Bhilai Steel Plant",21.185571,81.343175
India,Chhattisgarh,Bhilai,"Civic Center, Bhilai - Bhilai Steel Plant",21.185571,81.343175
India,Chhattisgarh,Bhilai,"Civic Center, Bhilai - Bhilai Steel Plant",21.185571,81.343175
India,Chhattisgarh,Chhal,"Nawapara SECL Colony, Chhal - CECB",22.118125,83.140608
India,Chhattisgarh,Chhal,"Nawapara SECL Colony, Chhal - CECB",22.118125,83.140608
India,Chhattisgarh,Chhal,"Nawapara SECL Colony, Chhal - CECB",22.118125,83.140608
India,Chhattisgarh,Korba,"Rampur, Korba - CECB",22.368195,82.746431
India,Chhattisgarh,Korba,"Urja Nagar, Korba - CECB",22.348441,82.549611
India,Chhattisgarh,Kunjemura,"OP Jindal School, Kunjemura - CECB",22.126650,83.483212
India,Chhattisgarh,Kunjemura,"OP Jindal School, Kunjemura - CECB",22.126650,83.483212
India,Chhattisgarh,Raipur,"AIIMS, Raipur - CECB",21.258815,81.578979
India,Chhattisgarh,Raipur,"AIIMS, Raipur - CECB",21.258815,81.578979
India,Chhattisgarh,Raipur,"Krishak Nagar, Raipur - CECB",21.237755,81.705301
India,Chhattisgarh,Raipur,"Siltara Phase-II, Raipur - CECB",21.371751,81.664929
India,Chhattisgarh,Raipur,"Siltara Phase-II, Raipur - CECB",21.371751,81.664929
India,Chhattisgarh,Tumidih,"OP Jindal Industrial Park, Tumidih - CECB",22.06631475,83.33820077
India,Delhi,Delhi,"Alipur, Delhi - DPCC",28.815329,77.153010
India,Delhi,Delhi,"Anand Vihar, Delhi - DPCC",28.647622,77.3158090
India,Delhi,Delhi,"Ashok Vihar, Delhi - DPCC",28.695381,77.181665
India,Delhi,Delhi,"Ashok Vihar, Delhi - DPCC",28.695381,77.181665
India,Delhi,Delhi,"Aya Nagar, Delhi - IMD",28.4706914,77.1099364
India,Delhi,Delhi,"Bawana, Delhi - DPCC",28.776200,77.051074
India,Delhi,Delhi,"Bawana, Delhi - DPCC",28.776200,77.051074
India,Delhi,Delhi,"Burari Crossing, Delhi - IMD",28.7256504,77.2011573
India,Delhi,Delhi,"Dr. Karni Singh Shooting Range, Delhi - DPCC",28.498571,77.264840
India,Delhi,Delhi,"Dwarka-Sector 8, Delhi - DPCC ",28.5710274,77.0719006
India,Delhi,Delhi,"Dwarka-Sector 8, Delhi - DPCC ",28.5710274,77.0719006
India,Delhi,Delhi,"Dwarka-Sector 8, Delhi - DPCC ",28.5710274,77.0719006
India,Delhi,Delhi,"Dwarka-Sector 8, Delhi - DPCC ",28.5710274,77.0719006
India,Delhi,Delhi,"IHBAS, Dilshad Garden, Delhi - CPCB",28.6811736,77.3025234
India,Delhi,Delhi,"IHBAS, Dilshad Garden, Delhi - CPCB",28.6811736,77.3025234
India,Delhi,Delhi,"ITO, Delhi - CPCB",28.628624,77.241060
India,Delhi,Delhi,"Jahangirpuri, Delhi - DPCC",28.732820,77.170633
India,Delhi,Delhi,"Jahangirpuri, Delhi - DPCC",28.732820,77.170633
India,Delhi,Delhi,"Jawaharlal Nehru Stadium, Delhi - DPCC",28.580280,77.233829
India,Delhi,Delhi,"Jawaharlal Nehru Stadium, Delhi - DPCC",28.580280,77.233829
India,Delhi,Delhi,"Major Dhyan Chand National Stadium, Delhi - DPCC",28.611281,77.237738
India,Delhi,Delhi,"Mandir Marg, Delhi - DPCC",28.636429,77.201067
India,Delhi,Delhi,"Mandir Marg, Delhi - DPCC",28.636429,77.201067
India,Delhi,Delhi,"Narela, Delhi - DPCC",28.822836,77.101981
India,Delhi,Delhi,"Narela, Delhi - DPCC",28.822836,77.101981
India,Delhi,Delhi,"Nehru Nagar, Delhi - DPCC",28.567890,77.250515
India,Delhi,Delhi,"Nehru Nagar, Delhi - DPCC",28.567890,77.250515
India,Delhi,Delhi,"North Campus, DU, Delhi - IMD",28.6573814,77.1585447
India,Delhi,Delhi,"North Campus, DU, Delhi - IMD",28.6573814,77.1585447
India,Delhi,Delhi,"Okhla Phase-2, Delhi - DPCC",28.530785,77.271255
India,Delhi,Delhi,"Okhla Phase-2, Delhi - DPCC",28.530785,77.271255
India,Delhi,Delhi,"Patparganj, Delhi - DPCC",28.623763,77.287209
India,Delhi,Delhi,"Patparganj, Delhi - DPCC",28.623763,77.287209
India,Delhi,Delhi,"Pusa, Delhi - DPCC",28.639652,77.146275
India,Delhi,Delhi,"R K Puram, Delhi - DPCC",28.563262,77.186937
India,Delhi,Delhi,"Rohini, Delhi - DPCC",28.732528,77.119920
India,Delhi,Delhi,"Rohini, Delhi - DPCC",28.732528,77.119920
India,Delhi,Delhi,"Rohini, Delhi - DPCC",28.732528,77.119920
India,Delhi,Delhi,"Shadipur, Delhi - CPCB",28.6514781,77.1473105
India,Delhi,Delhi,"Shadipur, Delhi - CPCB",28.6514781,77.1473105
India,Delhi,Delhi,"Sirifort, Delhi - CPCB",28.5504249,77.2159377
India,Delhi,Delhi,"Sirifort, Delhi - CPCB",28.5504249,77.2159377
India,Delhi,Delhi,"Sonia Vihar, Delhi - DPCC",28.710508,77.249485
India,Delhi,Delhi,"Sonia Vihar, Delhi - DPCC",28.710508,77.249485
India,Delhi,Delhi,"Sonia Vihar, Delhi - DPCC",28.710508,77.249485
India,Delhi,Delhi,"Sonia Vihar, Delhi - DPCC",28.710508,77.249485
India,Delhi,Delhi,"Sri Aurobindo Marg, Delhi - DPCC",28.531346,77.190156
India,Delhi,Delhi,"Vivek Vihar, Delhi - DPCC",28.672342,77.315260
India,Delhi,Delhi,"Wazirpur, Delhi - DPCC",28.699793,77.165453
India,Delhi,Delhi,"Wazirpur, Delhi - DPCC",28.699793,77.165453
India,Delhi,Delhi,"Wazirpur, Delhi - DPCC",28.699793,77.165453
India,Gujarat,Ahmedabad,"Chandkheda, Ahmedabad - IITM",23.107969,72.574648
India,Gujarat,Ahmedabad,"Gyaspur, Ahmedabad - IITM",22.977134,72.553024
India,Gujarat,Ahmedabad,"Gyaspur, Ahmedabad - IITM",22.977134,72.553024
India,Gujarat,Ahmedabad,"Raikhad, Ahmedabad - IITM",23.020509,72.579261
India,Gujarat,Ahmedabad,"Raikhad, Ahmedabad - IITM",23.020509,72.579261
India,Gujarat,Ahmedabad,"Raikhad, Ahmedabad - IITM",23.020509,72.579261
India,Gujarat,Ahmedabad,"Rakhial, Ahmedabad - IITM",23.016834,72.625775
India,Gujarat,Ahmedabad,"Rakhial, Ahmedabad - IITM",23.016834,72.625775
India,Gujarat,Ahmedabad,"SAC ISRO Bopal, Ahmedabad - IITM",23.041137,72.456691
India,Gujarat,Ahmedabad,"SAC ISRO Satellite, Ahmedabad - IITM",23.023389,72.515201
India,Gujarat,Ahmedabad,"SAC ISRO Satellite, Ahmedabad - IITM",23.023389,72.515201
India,Gujarat,Ahmedabad,"SAC ISRO Satellite, Ahmedabad - IITM",23.023389,72.515201
India,Gujarat,Ahmedabad,"SVPI Airport Hansol, Ahmedabad - IITM",23.076793,72.627874
India,Gujarat,Ahmedabad,"SVPI Airport Hansol, Ahmedabad - IITM",23.076793,72.627874
India,Gujarat,Ahmedabad,"Sardar Vallabhbhai Patel Stadium, Ahmedabad - IITM",23.043070,72.562968
India,Gujarat,Ahmedabad,"Sardar Vallabhbhai Patel Stadium, Ahmedabad - IITM",23.043070,72.562968
India,Gujarat,Gandhinagar,"GIFT City, Gandhinagar - IITM",23.163798,72.677768
India,Gujarat,Gandhinagar,"IIPHG Lekawada, Gandhinagar - IITM",23.243639,72.68994
India,Gujarat,Gandhinagar,"IIPHG Lekawada, Gandhinagar - IITM",23.243639,72.68994
India,Gujarat,Gandhinagar,"IIPHG Lekawada, Gandhinagar - IITM",23.243639,72.68994
India,Gujarat,Gandhinagar,"IIPHG Lekawada, Gandhinagar - IITM",23.243639,72.68994
India,Gujarat,Gandhinagar,"Sector-10, Gandhinagar - GPCB",23.221714,72.654328
India,Gujarat,Vatva,"Phase-4 GIDC, Vatva - GPCB",22.969611,72.643500
India,Haryana,Ambala,"Patti Mehar, Ambala - HSPCB",30.379589,76.778328
India,Haryana,Bahadurgarh,"Arya Nagar, Bahadurgarh - HSPCB",28.6701,76.9254
India,Haryana,Bahadurgarh,"Arya Nagar, Bahadurgarh - HSPCB",28.6701,76.9254
India,Haryana,Bhiwani,"H.B. Colony, Bhiwani - HSPCB",28.806223,76.141105
India,Haryana,Bhiwani,"H.B. Colony, Bhiwani - HSPCB",28.806223,76.141105
India,Haryana,Charkhi Dadri,"Mini Secretariat, Charkhi Dadri - HSPCB",28.593883,76.270653
India,Haryana,Charkhi Dadri,"Mini Secretariat, Charkhi Dadri - HSPCB",28.593883,76.270653
India,Haryana,Charkhi Dadri,"Mini Secretariat, Charkhi Dadri - HSPCB",28.593883,76.270653
India,Haryana,Dharuhera,"Municipal Corporation Office, Dharuhera -  HSPCB",28.206800,76.799700
India,Haryana,Faridabad,"Sector 11, Faridabad - HSPCB",28.376058,77.315741
India,Haryana,Faridabad,"Sector 11, Faridabad - HSPCB",28.376058,77.315741
India,Haryana,Faridabad,"Sector 11, Faridabad - HSPCB",28.376058,77.315741
India,Haryana,Faridabad,"Sector 11, Faridabad - HSPCB",28.376058,77.315741
India,Haryana,Faridabad,"Sector 30, Faridabad - HSPCB",28.4417,77.3217
India,Haryana,Faridabad,"Sector- 16A, Faridabad - HSPCB",28.4088421,77.3099081
India,Haryana,Faridabad,"Sector- 16A, Faridabad - HSPCB",28.4088421,77.3099081
India,Haryana,Faridabad,"Sector- 16A, Faridabad - HSPCB",28.4088421,77.3099081
India,Haryana,Gurugram,"NISE Gwal Pahari, Gurugram - IMD",28.422681,77.148944
India,Haryana,Gurugram,"Teri Gram, Gurugram - HSPCB",28.4275,77.1465
India,Haryana,Gurugram,"Vikas Sadan, Gurugram - HSPCB",28.4501238,77.0263051
India,Haryana,Gurugram,"Vikas Sadan, Gurugram - HSPCB",28.4501238,77.0263051
India,Haryana,Hisar,"Urban Estate-II, Hisar - HSPCB",29.140560,75.744941
India,Haryana,Jind,"Police Lines, Jind - HSPCB",29.307814,76.337619
India,Haryana,Jind,"Police Lines, Jind - HSPCB",29.307814,76.337619
India,Haryana,Kaithal,"Rishi Nagar, Kaithal - HSPCB",29.8006,76.4155
India,Haryana,Karnal,"Sector-12, Karnal - HSPCB",29.695300,77.002700
India,Haryana,Karnal,"Sector-12, Karnal - HSPCB",29.695300,77.002700
India,Haryana,Karnal,"Sector-12, Karnal - HSPCB",29.695300,77.002700
India,Haryana,Narnaul,"Shastri Nagar, Narnaul - HSPCB",28.060249,76.113115
India,Haryana,Narnaul,"Shastri Nagar, Narnaul - HSPCB",28.060249,76.113115
India,Haryana,Palwal,"Shyam Nagar, Palwal - HSPCB",28.1485564,77.3320667
India,Haryana,Panipat,"Sector-18, Panipat - HSPCB",29.497973,76.993331
India,Haryana,Panipat,"Sector-18, Panipat - HSPCB",29.497973,76.993331
India,Haryana,Panipat,"Sector-18, Panipat - HSPCB",29.497973,76.993331
India,Haryana,Sirsa,"F-Block, Sirsa - HSPCB",29.536400,75.015800
India,Haryana,Sirsa,"F-Block, Sirsa - HSPCB",29.536400,75.015800
India,Haryana,Yamuna Nagar,"Gobind Pura, Yamuna Nagar - HSPCB",30.1480566,77.2893471
India,Jharkhand,Dhanbad,"Kalakusuma, Dhanbad - DMC",23.811548,86.481238
India,Karnataka,Bagalkot,"Vidayagiri, Bagalkot - KSPCB",16.172806,75.659694
India,Karnataka,Bengaluru,"BTM Layout, Bengaluru - CPCB",12.9135218,77.5950804
India,Karnataka,Bengaluru,"BTM Layout, Bengaluru - CPCB",12.9135218,77.5950804
India,Karnataka,Bengaluru,"BTM Layout, Bengaluru - CPCB",12.9135218,77.5950804
India,Karnataka,Bengaluru,"Bapuji Nagar, Bengaluru - KSPCB",12.951913,77.539784
India,Karnataka,Bengaluru,"City Railway Station, Bengaluru - KSPCB",12.9756843,77.5660749
India,Karnataka,Bengaluru,"Hebbal, Bengaluru - KSPCB",13.029152,77.585901
India,Karnataka,Bengaluru,"Jayanagar 5th Block, Bengaluru - KSPCB",12.920984,77.584908
India,Karnataka,Bengaluru,"Jayanagar 5th Block, Bengaluru - KSPCB",12.920984,77.584908
India,Karnataka,Bengaluru,"Jigani, Bengaluru - KSPCB",12.7816279,77.6299145
India,Karnataka,Bengaluru,"Jigani, Bengaluru - KSPCB",12.7816279,77.6299145
India,Karnataka,Bengaluru,"Kasturi Nagar, Bengaluru - KSPCB",13.003872,77.664217
India,Karnataka,Bengaluru,"Kasturi Nagar, Bengaluru - KSPCB",13.003872,77.664217
India,Karnataka,Bengaluru,"Kasturi Nagar, Bengaluru - KSPCB",13.003872,77.664217
India,Karnataka,Bengaluru,"Peenya, Bengaluru - CPCB",13.0270199,77.494094
India,Karnataka,Bengaluru,"Peenya, Bengaluru - CPCB",13.0270199,77.494094
India,Karnataka,Bengaluru,"RVCE-Mailasandra, Bengaluru - KSPCB",12.921418,77.502466
India,Karnataka,Bengaluru,"RVCE-Mailasandra, Bengaluru - KSPCB",12.921418,77.502466
India,Karnataka,Bengaluru,"RVCE-Mailasandra, Bengaluru - KSPCB",12.921418,77.502466
India,Karnataka,Bengaluru,"Shivapura_Peenya, Bengaluru - KSPCB",13.0246342,77.5080115
India,Karnataka,Bengaluru,"Silk Board, Bengaluru - KSPCB",12.917348,77.622813
India,Karnataka,Bengaluru,"Silk Board, Bengaluru - KSPCB",12.917348,77.622813
India,Karnataka,Bidar,"Naubad, Bidar - KSPCB",17.930306,77.482194
India,Karnataka,Chikkaballapur,"Chikkaballapur Rural, Chikkaballapur - KSPCB",13.428828,77.731418
India,Karnataka,Chikkaballapur,"Chikkaballapur Rural, Chikkaballapur - KSPCB",13.428828,77.731418
India,Karnataka,Davanagere,"Devaraj Urs Badavane, Davanagere - KSPCB",14.475800,75.905200
India,Karnataka,Dharwad,"Kalabhavan, Dharwad - KSPCB",15.459706,75.008381
India,Karnataka,Gadag,"Panchal Nagar, Gadag - KSPCB",15.411456,75.638133
India,Karnataka,Hassan,"B.Katihalli, Hassan - KSPCB",13.008556,76.125258
India,Karnataka,Hassan,"B.Katihalli, Hassan - KSPCB",13.008556,76.125258
India,Karnataka,Haveri,"Ashwini Nagar, Haveri - KSPCB",14.791800,75.389600
India,Karnataka,Hubballi,"Lingaraj Nagar, Hubballi - KSPCB",15.3714823,75.1160168
India,Karnataka,Hubballi,"Lingaraj Nagar, Hubballi - KSPCB",15.3714823,75.1160168
India,Karnataka,Kalaburagi,"Lal Bahadur Shastri Nagar, Kalaburagi - KSPCB",17.321993,76.822628
India,Karnataka,Kalaburagi,"Mahatma Basaveswar Colony, Kalaburgi - KSPCB",17.336318,76.847397
India,Karnataka,Kalaburagi,"Mahatma Basaveswar Colony, Kalaburgi - KSPCB",17.336318,76.847397
India,Karnataka,Kolar,"Tamaka Ind. Area, Kolar - KSPCB",13.1276288,78.1570122
India,Karnataka,Koppal,"Diwator Nagar, Koppal - KSPCB",15.347630,76.181767
India,Karnataka,Koppal,"Diwator Nagar, Koppal - KSPCB",15.347630,76.181767
India,Karnataka,Koppal,"Diwator Nagar, Koppal - KSPCB",15.347630,76.181767
India,Karnataka,Madikeri,"Stuart Hill, Madikeri - KSPCB",12.415911,75.735050
India,Karnataka,Mangalore,"Kadri, Mangalore - KSPCB",12.889250,74.853000
India,Karnataka,Mysuru,"Hebbal 1st Stage, Mysuru - KSPCB",12.21041,76.37376
India,Karnataka,Ramanagara,"Vijay Nagar, Ramanagara - KSPCB",12.733409,77.298051
India,Karnataka,Ramanagara,"Vijay Nagar, Ramanagara - KSPCB",12.733409,77.298051
India,Karnataka,Ramanagara,"Vijay Nagar, Ramanagara - KSPCB",12.733409,77.298051
India,Karnataka,Ramanagara,"Vijay Nagar, Ramanagara - KSPCB",12.733409,77.298051
India,Karnataka,Shivamogga,"Vinoba Nagara, Shivamogga - KSPCB",13.940000,75.555917
India,Karnataka,Shivamogga,"Vinoba Nagara, Shivamogga - KSPCB",13.940000,75.555917
India,Karnataka,Tumakuru,"Thimmalapura, Tumakuru - KSPCB",13.377516,77.099072
India,Karnataka,Tumakuru,"Thimmalapura, Tumakuru - KSPCB",13.377516,77.099072
India,Karnataka,Yadgir,"Collector Office, Yadgir - KSPCB",16.7602,77.1428
India,Karnataka,Yadgir,"Collector Office, Yadgir - KSPCB",16.7602,77.1428
India,Kerala,Kannur,"Thavakkara, Kannur - Kerala PCB",11.875000,75.373200
India,Kerala,Thiruvananthapuram,"Plammoodu, Thiruvananthapuram - Kerala PCB",8.5149093,76.9435879
India,Kerala,Thrissur,"Corporation Ground, Thrissur - Kerala PCB",10.532400,76.215900
India,Madhya Pradesh,Bhopal,"Idgah Hills, Bhopal - MPPCB",23.264759,77.381568
India,Madhya Pradesh,Bhopal,"Idgah Hills, Bhopal - MPPCB",23.264759,77.381568
India,Madhya Pradesh,Bhopal,"Idgah Hills, Bhopal - MPPCB",23.264759,77.381568
India,Madhya Pradesh,Bhopal,"Idgah Hills, Bhopal - MPPCB",23.264759,77.381568
India,Madhya Pradesh,Bhopal,"T T Nagar, Bhopal - MPPCB",23.233584,77.400574
India,Madhya Pradesh,Damoh,"Shrivastav Colony, Damoh - MPPCB",23.81748678,79.446246
India,Madhya Pradesh,Gwalior,"Deen Dayal Nagar, Gwalior - MPPCB",26.259242,78.216432
India,Madhya Pradesh,Gwalior,"Deen Dayal Nagar, Gwalior - MPPCB",26.259242,78.216432
India,Madhya Pradesh,Indore,"Maguda Nagar, Indore - IMC",22.7524,75.8872
India,Madhya Pradesh,Indore,"Maguda Nagar, Indore - IMC",22.7524,75.8872
India,Madhya Pradesh,Indore,"Maguda Nagar, Indore - IMC",22.7524,75.8872
India,Madhya Pradesh,Indore,"Regional Park, Indore - IMC",22.6780,75.8559
India,Madhya Pradesh,Indore,"Regional Park, Indore - IMC",22.6780,75.8559
India,Madhya Pradesh,Indore,"Residency Area, Indore - IMC",22.7084,75.8815
India,Madhya Pradesh,Indore,"Residency Area, Indore - IMC",22.7084,75.8815
India,Madhya Pradesh,Jabalpur,"Govindh Bhavan Colony, Jabalpur - JMC",23.163174,79.973061
India,Madhya Pradesh,Jabalpur,"Govindh Bhavan Colony, Jabalpur - JMC",23.163174,79.973061
India,Madhya Pradesh,Jabalpur,"Gupteshwar, Jabalpur - JMC",23.142888,79.916147
India,Madhya Pradesh,Jabalpur,"Marhatal, Jabalpur - MPPCB",23.168606,79.932247
India,Madhya Pradesh,Jabalpur,"Marhatal, Jabalpur - MPPCB",23.168606,79.932247
India,Madhya Pradesh,Jabalpur,"Suhagi, Jabalpur - JMC",23.218135,79.957770
India,Madhya Pradesh,Jabalpur,"Suhagi, Jabalpur - JMC",23.218135,79.957770
India,Madhya Pradesh,Katni,"Gole Bazar, Katni - MPPCB",23.50016,80.23284
India,Madhya Pradesh,Maihar,"Sahilara, Maihar - KJS Cements",24.2613009,80.7231783
India,Madhya Pradesh,Maihar,"Sahilara, Maihar - KJS Cements",24.2613009,80.7231783
India,Madhya Pradesh,Maihar,"Sahilara, Maihar - KJS Cements",24.2613009,80.7231783
India,Madhya Pradesh,Pithampur,"Sector-2 Industrial Area, Pithampur - MPPCB",22.624758,75.675238
India,Madhya Pradesh,Pithampur,"Sector-2 Industrial Area, Pithampur - MPPCB",22.624758,75.675238
India,Madhya Pradesh,Pithampur,"Sector-2 Industrial Area, Pithampur - MPPCB",22.624758,75.675238
India,Madhya Pradesh,Ratlam,"Shasthri Nagar, Ratlam - IPCA Lab",23.331731,75.045981
India,Madhya Pradesh,Sagar,"Civil Lines, Sagar - MPPCB",23.838586,78.759431
India,Madhya Pradesh,Sagar,"Civil Lines, Sagar - MPPCB",23.838586,78.759431
India,Madhya Pradesh,Ujjain,"Mahakaleshwar Temple, Ujjain - MPPCB",23.182719 ,75.768218 
India,Maharashtra,Ahmednagar,"Tarakpur, Ahmednagar - MPCB",19.10122,74.73339
India,Maharashtra,Ahmednagar,"Tarakpur, Ahmednagar - MPCB",19.10122,74.73339
India,Maharashtra,Akola,"Ramdaspeth, Akola - MPCB",20.719516,77.000253
India,Maharashtra,Akola,"Ramdaspeth, Akola - MPCB",20.719516,77.000253
India,Maharashtra,Amravati,"Shri Shivaji Science College, Amaravati - MPCB",20.939198,77.765701
India,Maharashtra,Aurangabad,"More Chowk Waluj, Aurangabad - MPCB",19.8389439,75.244448
India,Maharashtra,Aurangabad,"Rachnakar Colony, Aurangabad - MPCB",19.863756,75.321188
India,Maharashtra,Aurangabad,"Rachnakar Colony, Aurangabad - MPCB",19.863756,75.321188
India,Maharashtra,Badlapur,"Katrap, Badlapur - MPCB",19.16485,73.23409
India,Maharashtra,Badlapur,"Katrap, Badlapur - MPCB",19.16485,73.23409
India,Maharashtra,Badlapur,"Katrap, Badlapur - MPCB",19.16485,73.23409
India,Maharashtra,Belapur,"CBD Belapur, Belapur - MPCB",19.0243902,73.0406721
India,Maharashtra,Belapur,"CBD Belapur, Belapur - MPCB",19.0243902,73.0406721
India,Maharashtra,Belapur,"CBD Belapur, Belapur - MPCB",19.0243902,73.0406721
India,Maharashtra,Bhiwandi,"Gokul Nagar, Bhiwandi - MPCB",19.309073,73.057223
India,Maharashtra,Bhiwandi,"Gokul Nagar, Bhiwandi - MPCB",19.309073,73.057223
India,Maharashtra,Boisar,"Khaira, Boisar - MPCB",19.786089,72.757971
India,Maharashtra,Boisar,"Khaira, Boisar - MPCB",19.786089,72.757971
India,Maharashtra,Boisar,"Khaira, Boisar - MPCB",19.786089,72.757971
India,Maharashtra,Chandrapur,"Chauhan Colony, Chandrapur - MPCB",19.962900,79.298714
India,Maharashtra,Dhule,"Deopur, Dhule - MPCB",20.918946,74.776388
India,Maharashtra,Jalgaon,"Prabhat Colony, Jalgaon - MPCB",21.001264,75.565602
India,Maharashtra,Kalyan,"Khadakpada, Kalyan - MPCB",19.25292,73.142019
India,Maharashtra,Kalyan,"Khadakpada, Kalyan - MPCB",19.25292,73.142019
India,Maharashtra,Kalyan,"Khadakpada, Kalyan - MPCB",19.25292,73.142019
India,Maharashtra,Kolhapur,"Shivaji University, Kolhapur - MPCB",16.6870449,74.2505872
India,Maharashtra,Kolhapur,"Sinchan Bhavan, Kolhapur - MPCB",16.7143745,74.2426398
India,Maharashtra,Kolhapur,"Sinchan Bhavan, Kolhapur - MPCB",16.7143745,74.2426398
India,Maharashtra,Latur,"Sawe Wadi, Latur - MPCB",18.39963,76.57452
India,Maharashtra,Latur,"Sawe Wadi, Latur - MPCB",18.39963,76.57452
India,Maharashtra,Mahad,"Kamble Tarf Birwadi, Mahad - MPCB",18.1023399,73.4783687
India,Maharashtra,Mahad,"Kamble Tarf Birwadi, Mahad - MPCB",18.1023399,73.4783687
India,Maharashtra,Mahad,"Kamble Tarf Birwadi, Mahad - MPCB",18.1023399,73.4783687
India,Maharashtra,Mahad,"Kamble Tarf Birwadi, Mahad - MPCB",18.1023399,73.4783687
India,Maharashtra,Malegaon,"Mahesh Nagar, Malegaon - MPCB",20.555712,74.529236
India,Maharashtra,Malegaon,"Mahesh Nagar, Malegaon - MPCB",20.555712,74.529236
India,Maharashtra,Mumbai,"Bandra Kurla Complex, Mumbai - MPCB",19.065931,72.862131
India,Maharashtra,Mumbai,"Borivali East, Mumbai - MPCB",19.2243333,72.8658113
India,Maharashtra,Mumbai,"Borivali East, Mumbai - MPCB",19.2243333,72.8658113
India,Maharashtra,Mumbai,"Chakala-Andheri East, Mumbai - IITM",19.11074,72.86084
India,Maharashtra,Mumbai,"Chembur, Mumbai - MPCB",19.0364585,72.8954371
India,Maharashtra,Mumbai,"Chhatrapati Shivaji Intl. Airport (T2), Mumbai - MPCB",19.10078,72.87462
India,Maharashtra,Mumbai,"Colaba, Mumbai - MPCB",18.910000,72.820000
India,Maharashtra,Mumbai,"Colaba, Mumbai - MPCB",18.910000,72.820000
India,Maharashtra,Mumbai,"Ghatkopar, Mumbai - BMC",19.083694,72.920967
India,Maharashtra,Mumbai,"Kandivali East, Mumbai - MPCB",19.205800,72.868200
India,Maharashtra,Mumbai,"Kandivali West, Mumbai - BMC",19.215859,72.831718
India,Maharashtra,Mumbai,"Kherwadi_Bandra East, Mumbai - MPCB",19.0632143,72.8456324
India,Maharashtra,Mumbai,"Kherwadi_Bandra East, Mumbai - MPCB",19.0632143,72.8456324
India,Maharashtra,Mumbai,"Kherwadi_Bandra East, Mumbai - MPCB",19.0632143,72.8456324
India,Maharashtra,Mumbai,"Kurla, Mumbai - MPCB",19.0863,72.8888
India,Maharashtra,Mumbai,"Kurla, Mumbai - MPCB",19.0863,72.8888
India,Maharashtra,Mumbai,"Kurla, Mumbai - MPCB",19.0863,72.8888
India,Maharashtra,Mumbai,"Malad West, Mumbai - IITM",19.19709,72.82204
India,Maharashtra,Mumbai,"Mazgaon, Mumbai - IITM",18.96702,72.84214
India,Maharashtra,Mumbai,"Mazgaon, Mumbai - IITM",18.96702,72.84214
India,Maharashtra,Mumbai,"Mazgaon, Mumbai - IITM",18.96702,72.84214
India,Maharashtra,Mumbai,"Mindspace-Malad West, Mumbai - MPCB",19.1878657,72.8304069
India,Maharashtra,Mumbai,"Mulund West, Mumbai - MPCB",19.1750,72.9419
India,Maharashtra,Mumbai,"Mulund West, Mumbai - MPCB",19.1750,72.9419
India,Maharashtra,Mumbai,"Navy Nagar-Colaba, Mumbai - IITM",18.897756,72.813320
India,Maharashtra,Mumbai,"Powai, Mumbai - MPCB",19.137500,72.915056
India,Maharashtra,Mumbai,"Sewri, Mumbai - BMC",19.000084,72.856730
India,Maharashtra,Mumbai,"Sion, Mumbai - MPCB",19.047000,72.874600
India,Maharashtra,Mumbai,"Sion, Mumbai - MPCB",19.047000,72.874600
India,Maharashtra,Mumbai,"Sion, Mumbai - MPCB",19.047000,72.874600
India,Maharashtra,Mumbai,"Vasai West, Mumbai - MPCB",19.383200,72.820400
India,Maharashtra,Mumbai,"Vasai West, Mumbai - MPCB",19.383200,72.820400
India,Maharashtra,Mumbai,"Vile Parle West, Mumbai - MPCB",19.10861,72.83622
India,Maharashtra,Nagpur,"Ambazari, Nagpur - MPCB",21.121801,79.04952
India,Maharashtra,Nagpur,"Ambazari, Nagpur - MPCB",21.121801,79.04952
India,Maharashtra,Nagpur,"Mahal, Nagpur - MPCB",21.14472,79.107595
India,Maharashtra,Nagpur,"Opp GPO Civil Lines, Nagpur - MPCB",21.152875,79.0517531
India,Maharashtra,Nagpur,"Opp GPO Civil Lines, Nagpur - MPCB",21.152875,79.0517531
India,Maharashtra,Nagpur,"Opp GPO Civil Lines, Nagpur - MPCB",21.152875,79.0517531
India,Maharashtra,Nagpur,"Ram Nagar, Nagpur - MPCB",21.143383,79.048912
India,Maharashtra,Nagpur,"Ram Nagar, Nagpur - MPCB",21.143383,79.048912
India,Maharashtra,Nagpur,"Ram Nagar, Nagpur - MPCB",21.143383,79.048912
India,Maharashtra,Nanded,"Sneh Nagar, Nanded - MPCB",19.173852,77.296291
India,Maharashtra,Nanded,"Sneh Nagar, Nanded - MPCB",19.173852,77.296291
India,Maharashtra,Nashik,"MIDC Ambad, Nashik - MPCB",19.950220,73.731480
India,Maharashtra,Nashik,"MIDC Ambad, Nashik - MPCB",19.950220,73.731480
India,Maharashtra,Nashik,"Pandav Nagari, Nashik - MPCB",19.9591346,73.7788008
India,Maharashtra,Nashik,"Pandav Nagari, Nashik - MPCB",19.9591346,73.7788008
India,Maharashtra,Navi Mumbai,"Kopripada-Vashi, Navi Mumbai - MPCB",19.090337,73.014232
India,Maharashtra,Navi Mumbai,"Mahape, Navi Mumbai - MPCB",19.1135051,73.008978
India,Maharashtra,Navi Mumbai,"Nerul, Navi Mumbai - MPCB",19.008751,73.016620
India,Maharashtra,Navi Mumbai,"Nerul, Navi Mumbai - MPCB",19.008751,73.016620
India,Maharashtra,Navi Mumbai,"Sector-19A Nerul, Navi Mumbai - IITM",19.044,73.0325
India,Maharashtra,Navi Mumbai,"Sector-2E Kalamboli, Navi Mumbai - MPCB",19.02579,73.10297
India,Maharashtra,Parbhani,"Masoom Colony, Parbhani - MPCB",19.265594,76.761463
India,Maharashtra,Pimpri-Chinchwad,"Park Street Wakad, Pimpri Chinchwad - MPCB",18.59051,73.77946
India,Maharashtra,Pimpri-Chinchwad,"Thergaon, Pimpri Chinchwad - MPCB",18.616318,73.765797
India,Maharashtra,Pune,"Alandi, Pune - IITM",18.675076,73.892743
India,Maharashtra,Pune,"Alandi, Pune - IITM",18.675076,73.892743
India,Maharashtra,Pune,"Bhosari, Pune - IITM",18.640051,73.848956
India,Maharashtra,Pune,"Karve Road, Pune - MPCB",18.5011743,73.8165527
India,Maharashtra,Pune,"Katraj Dairy, Pune - MPCB",18.454450,73.854155
India,Maharashtra,Pune,"Katraj Dairy, Pune - MPCB",18.454450,73.854155
India,Maharashtra,Pune,"Mhada Colony, Pune - IITM",18.573040,73.927715
India,Maharashtra,Pune,"Mhada Colony, Pune - IITM",18.573040,73.927715
India,Maharashtra,Pune,"Revenue Colony-Shivajinagar, Pune - IITM",18.530085,73.849598
India,Maharashtra,Pune,"Savitribai Phule Pune University, Pune - MPCB",18.547056,73.826908
India,Maharashtra,Pune,"Savitribai Phule Pune University, Pune - MPCB",18.547056,73.826908
India,Maharashtra,Solapur,"Dnyaneshwar Nagar, Solapur - MPCB",17.6336264,75.9132495
India,Maharashtra,Solapur,"Dnyaneshwar Nagar, Solapur - MPCB",17.6336264,75.9132495
India,Maharashtra,Solapur,"Ratandeep Housing Society, Solapur - MPCB",17.65439,75.90649
India,Maharashtra,Solapur,"Ratandeep Housing Society, Solapur - MPCB",17.65439,75.90649
India,Maharashtra,Solapur,"Ratandeep Housing Society, Solapur - MPCB",17.65439,75.90649
India,Maharashtra,Solapur,"Ratandeep Housing Society, Solapur - MPCB",17.65439,75.90649
India,Maharashtra,Solapur,"Solapur, Solapur - MPCB",17.6599188,75.9063906
India,Maharashtra,Thane,"Kasarvadavali, Thane - MPCB",19.26777,72.97182
India,Maharashtra,Thane,"Upvan Fort, Thane - MPCB",19.222279,72.957979
India,Maharashtra,Thane,"Upvan Fort, Thane - MPCB",19.222279,72.957979
India,Maharashtra,Thane,"Upvan Fort, Thane - MPCB",19.222279,72.957979
India,Maharashtra,Ulhasnagar,"Sidhi Vinayak Nagar, Ulhasnagar - MPCB",19.235581,73.159121
India,Maharashtra,Virar,"Bolinj, Virar - MPCB",19.4458210,72.7988231
India,Manipur,Imphal,"DM College of Science, Imphal - Manipur PCB",24.8207389,93.9423085
India,Manipur,Imphal,"DM College of Science, Imphal - Manipur PCB",24.8207389,93.9423085
India,Meghalaya,Shillong,"Lumpyngngad, Shillong - Meghalaya PCB",25.5586,91.8985
India,Meghalaya,Shillong,"Lumpyngngad, Shillong - Meghalaya PCB",25.5586,91.8985
India,Mizoram,Aizawl,"Sikulpuikawn, Aizawl - Mizoram PCB",23.7176342,92.7192841
India,Nagaland,Kohima,"PWD Juction, Kohima - NPCB",25.6635413,94.0989878
India,Odisha,Angul,"Hakimapada, Angul - OSPCB",20.832874,85.104082
India,Odisha,Angul,"Hakimapada, Angul - OSPCB",20.832874,85.104082
India,Odisha,Angul,"Hakimapada, Angul - OSPCB",20.832874,85.104082
India,Odisha,Balasore,"Kalidaspur, Balasore - OSPCB",21.51161,86.89088
India,Odisha,Balasore,"Kalidaspur, Balasore - OSPCB",21.51161,86.89088
India,Odisha,Bhubaneswar,"Lingraj Mandir, Bhubaneswar - OSPCB",20.240790,85.836784
India,Odisha,Bhubaneswar,"Lingraj Mandir, Bhubaneswar - OSPCB",20.240790,85.836784
India,Odisha,Bhubaneswar,"Patia, Bhubaneswar - OSPCB",20.34652,85.81630
India,Odisha,Bhubaneswar,"Patia, Bhubaneswar - OSPCB",20.34652,85.81630
India,Odisha,Bileipada,"Tata Township, Bileipada - OSPCB",22.06156703,85.47409613
India,Odisha,Bileipada,"Tata Township, Bileipada - OSPCB",22.06156703,85.47409613
India,Odisha,Brajrajnagar,"GM Office, Brajrajnagar - OSPCB",21.8004996,83.8396977
India,Odisha,Brajrajnagar,"GM Office, Brajrajnagar - OSPCB",21.8004996,83.8396977
India,Odisha,Brajrajnagar,"GM Office, Brajrajnagar - OSPCB",21.8004996,83.8396977
India,Odisha,Byasanagar,"Ferro Chrome Colony, Byasanagar - OSPCB",20.94185,86.11510
India,Odisha,Byasanagar,"Ferro Chrome Colony, Byasanagar - OSPCB",20.94185,86.11510
India,Odisha,Byasanagar,"Ferro Chrome Colony, Byasanagar - OSPCB",20.94185,86.11510
India,Odisha,Cuttack,"CDA Area, Cuttack - OSPCB",20.48891     ,85.84768     
India,Odisha,Rairangpur,"Divisional Forest Office, Rairangpur - OSPCB",22.265816,86.174829
India,Odisha,Rourkela,"Fertilizer Township, Rourkela - OSPCB",22.18972222,84.86277778
India,Odisha,Rourkela,"Raghunathpali, Rourkela - OSPCB",22.220833,84.809444
India,Odisha,Rourkela,"Raghunathpali, Rourkela - OSPCB",22.220833,84.809444
India,Odisha,Rourkela,"Raghunathpali, Rourkela - OSPCB",22.220833,84.809444
India,Odisha,Suakati,"OMC Colony, Suakati - OSPCB",21.606865,85.510538
India,Odisha,Talcher,"Talcher Coalfields,Talcher - OSPCB",20.9360711,85.1707021
India,Odisha,Talcher,"Talcher Coalfields,Talcher - OSPCB",20.9360711,85.1707021
India,Odisha,Talcher,"Talcher Coalfields,Talcher - OSPCB",20.9360711,85.1707021
India,Odisha,Talcher,"Talcher Coalfields,Talcher - OSPCB",20.9360711,85.1707021
India,Odisha,Tensa,"Barsua Iron Ore Mines, Tensa - OSPCB",21.869985,85.167016
India,Odisha,Tensa,"Barsua Iron Ore Mines, Tensa - OSPCB",21.869985,85.167016
India,Puducherry,Puducherry,"Jawahar Nagar, Puducherry - PPCC",11.9309,79.8027
India,Punjab,Amritsar,"Golden Temple, Amritsar - PPCB",31.620000,74.876512
India,Punjab,Bathinda,"Hardev Nagar, Bathinda - PPCB",30.233011,74.907758
India,Punjab,Bathinda,"Hardev Nagar, Bathinda - PPCB",30.233011,74.907758
India,Punjab,Khanna,"Kalal Majra, Khanna - PPCB",30.736056 ,76.209694
India,Punjab,Khanna,"Kalal Majra, Khanna - PPCB",30.736056 ,76.209694
India,Punjab,Mandi Gobindgarh,"RIMT University, Mandi Gobindgarh - PPCB",30.649961,76.331442
India,Punjab,Patiala,"Model Town, Patiala - PPCB",30.349388,76.366642
India,Punjab,Patiala,"Model Town, Patiala - PPCB",30.349388,76.366642
India,Punjab,Rupnagar,"Ratanpura, Rupnagar - Ambuja Cements",31.0325454,76.5623046
India,Punjab,Rupnagar,"Ratanpura, Rupnagar - Ambuja Cements",31.0325454,76.5623046
India,Punjab,Rupnagar,"Ratanpura, Rupnagar - Ambuja Cements",31.0325454,76.5623046
India,Rajasthan,Banswara,"Rati Talai, Banswara - RSPCB",23.555190,74.440010
India,Rajasthan,Baran,"Bamboliya, Baran - RSPCB",25.106006,76.469948
India,Rajasthan,Baran,"Bamboliya, Baran - RSPCB",25.106006,76.469948
India,Rajasthan,Baran,"Bamboliya, Baran - RSPCB",25.106006,76.469948
India,Rajasthan,Barmer,"Railway Colony, Barmer - RSPCB",25.747299,71.393989
India,Rajasthan,Bharatpur,"Krishna Nagar, Bharatpur - RSPCB",27.215415,77.50873
India,Rajasthan,Bhilwara,"Pratap Nagar, Bhilwara - RSPCB",25.339605,74.618883
India,Rajasthan,Bhiwadi,"RIICO Ind. Area III, Bhiwadi - RSPCB",28.194909,76.862296
India,Rajasthan,Bikaner,"MM Ground, Bikaner - RSPCB",28.018792,73.292658
India,Rajasthan,Bundi,"New Colony, Bundi - RSPCB",25.435774,75.644272
India,Rajasthan,Bundi,"New Colony, Bundi - RSPCB",25.435774,75.644272
India,Rajasthan,Chittorgarh,"Shastri Nagar, Chittorgarh - RSPCB",24.892047,74.623527
India,Rajasthan,Dausa,"Khatikan Mohalla, Dausa - RSPCB",26.895552,76.334753
India,Rajasthan,Dausa,"Khatikan Mohalla, Dausa - RSPCB",26.895552,76.334753
India,Rajasthan,Dungarpur,"Bhoiwada, Dungarpur - RSPCB",23.837789,73.714926
India,Rajasthan,Dungarpur,"Bhoiwada, Dungarpur - RSPCB",23.837789,73.714926
India,Rajasthan,Hanumangarh,"Housing Board, Hanumangarh - RSPCB",29.610750,74.283608
India,Rajasthan,Hanumangarh,"Housing Board, Hanumangarh - RSPCB",29.610750,74.283608
India,Rajasthan,Jaipur,"Adarsh Nagar, Jaipur - RSPCB",26.902909,75.836858
India,Rajasthan,Jaipur,"Adarsh Nagar, Jaipur - RSPCB",26.902909,75.836858
India,Rajasthan,Jaipur,"Adarsh Nagar, Jaipur - RSPCB",26.902909,75.836858
India,Rajasthan,Jaipur,"RIICO Sitapura, Jaipur - RSPCB",26.786682,75.827928
India,Rajasthan,Jaipur,"RIICO Sitapura, Jaipur - RSPCB",26.786682,75.827928
India,Rajasthan,Jaipur,"Sector-2 Murlipura, Jaipur - RSPCB",26.960669,75.771817
India,Rajasthan,Jaisalmer,"Sadar Bazar, Jaisalmer - RSPCB",26.912329,70.909168
India,Rajasthan,Jalore,"Mudtra Sili, Jalore - RSPCB",25.344694,72.626208
India,Rajasthan,Jalore,"Mudtra Sili, Jalore - RSPCB",25.344694,72.626208
India,Rajasthan,Jalore,"Mudtra Sili, Jalore - RSPCB",25.344694,72.626208
India,Rajasthan,Jhalawar,"Rajlaxmi Nagar, Jhalawar - RSPCB",24.588397,76.172782
India,Rajasthan,Jhalawar,"Rajlaxmi Nagar, Jhalawar - RSPCB",24.588397,76.172782
India,Rajasthan,Jhalawar,"Rajlaxmi Nagar, Jhalawar - RSPCB",24.588397,76.172782
India,Rajasthan,Jhunjhunu,"Indra Nagar, Jhunjhunu - RSPCB",28.108988,75.386577
India,Rajasthan,Jhunjhunu,"Indra Nagar, Jhunjhunu - RSPCB",28.108988,75.386577
India,Rajasthan,Jodhpur,"Digari Kalan, Jodhpur - RSPCB",26.295810,73.082283
India,Rajasthan,Jodhpur,"Jhalamand, Jodhpur - RSPCB",26.215415,73.070156
India,Rajasthan,Jodhpur,"Mandor, Jodhpur - RSPCB",26.358805,73.047444
India,Rajasthan,Jodhpur,"Mandor, Jodhpur - RSPCB",26.358805,73.047444
India,Rajasthan,Karauli,"Satyawati Vihar, Karauli - RSPCB",26.506177,77.025989
India,Rajasthan,Kota,"Dhanmandi, Kota - RSPCB",25.164090,75.858137
India,Rajasthan,Kota,"Dhanmandi, Kota - RSPCB",25.164090,75.858137
India,Rajasthan,Nagaur,"Karni Colony, Nagaur - RSPCB",27.213494,73.734444
India,Rajasthan,Nagaur,"Karni Colony, Nagaur - RSPCB",27.213494,73.734444
India,Rajasthan,Nagaur,"Karni Colony, Nagaur - RSPCB",27.213494,73.734444
India,Rajasthan,Nagaur,"Karni Colony, Nagaur - RSPCB",27.213494,73.734444
India,Rajasthan,Pratapgarh,"Pragati Nagar, Pratapgarh - RSPCB",24.041198,74.780702
India,Rajasthan,Sawai Madhopur,"Sahu Nagar, Sawai Madhopur - RSPCB",26.031443,76.359327
India,Rajasthan,Sawai Madhopur,"Sahu Nagar, Sawai Madhopur - RSPCB",26.031443,76.359327
India,Rajasthan,Sirohi,"Vedhaynath Colony, Sirohi - RSPCB",24.885261,72.857549
India,Rajasthan,Sirohi,"Vedhaynath Colony, Sirohi - RSPCB",24.885261,72.857549
India,Rajasthan,Sirohi,"Vedhaynath Colony, Sirohi - RSPCB",24.885261,72.857549
India,Rajasthan,Sri Ganganagar,"Old City, Sri Ganganagar - RSPCB",29.931624,73.864511
India,Rajasthan,Sri Ganganagar,"Old City, Sri Ganganagar - RSPCB",29.931624,73.864511
India,Rajasthan,Tonk,"Shastri Nagar, Tonk - RSPCB",26.159933,75.780517
India,Rajasthan,Tonk,"Shastri Nagar, Tonk - RSPCB",26.159933,75.780517
India,Rajasthan,Udaipur,"Ashok Nagar, Udaipur - RSPCB",24.5886166,73.6321397
India,Rajasthan,Udaipur,"Ashok Nagar, Udaipur - RSPCB",24.5886166,73.6321397
India,TamilNadu,Ariyalur,"Keelapalur, Ariyalur - TNPCB",11.06825,79.07033
India,TamilNadu,Chengalpattu,"Crescent University, Chengalpattu - TNPCB",12.8777316,80.0834807
India,TamilNadu,Chennai,"Alandur Bus Depot, Chennai - CPCB",12.9099161,80.1076538
India,TamilNadu,Chennai,"Alandur Bus Depot, Chennai - CPCB",12.9099161,80.1076538
India,TamilNadu,Chennai,"Alandur Bus Depot, Chennai - CPCB",12.9099161,80.1076538
India,TamilNadu,Chennai,"Arumbakkam, Chennai - TNPCB",13.0664,80.2112 
India,TamilNadu,Chennai,"Arumbakkam, Chennai - TNPCB",13.0664,80.2112 
India,TamilNadu,Chennai,"Arumbakkam, Chennai - TNPCB",13.0664,80.2112 
India,TamilNadu,Chennai,"Kodungaiyur, Chennai - TNPCB",13.1278,80.2642
India,TamilNadu,Chennai,"Kodungaiyur, Chennai - TNPCB",13.1278,80.2642
India,TamilNadu,Chennai,"Perungudi, Chennai - TNPCB",12.9533,80.2357
India,TamilNadu,Chennai,"Perungudi, Chennai - TNPCB",12.9533,80.2357
India,TamilNadu,Chennai,"Royapuram, Chennai - TNPCB",13.1036,80.2909
India,TamilNadu,Coimbatore,"PSG College of Arts and Science, Coimbatore - TNPCB",11.0328,77.0349
India,TamilNadu,Cuddalore,"Kudikadu, Cuddalore - TNPCB",11.6829898,79.7532099
India,TamilNadu,Cuddalore,"Kudikadu, Cuddalore - TNPCB",11.6829898,79.7532099
India,TamilNadu,Gummidipoondi,"Anthoni Pillai Nagar, Gummidipoondi - TNPCB",13.4127,80.1081
India,TamilNadu,Kanchipuram,"Kilambi, Kanchipuram - TNPCB",12.864618,79.659968
India,TamilNadu,Kanchipuram,"Kilambi, Kanchipuram - TNPCB",12.864618,79.659968
India,TamilNadu,Palkalaiperur,"Bharathidasan University, Palkalaiperur - TNPCB",10.681158,78.741746
India,TamilNadu,Palkalaiperur,"Bharathidasan University, Palkalaiperur - TNPCB",10.681158,78.741746
India,TamilNadu,Salem,"Sona College of Technology, Salem - TNPCB",11.679111,78.125052
India,TamilNadu,Thoothukudi,"Meelavittan, Thoothukudi - TNPCB",8.816428 ,78.099039
India,TamilNadu,Tiruchirappalli,"St Joseph College, Tiruchirappalli - TNPCB",10.830158,78.691849
India,TamilNadu,Tirupur,"Kumaran College, Tirupur - TNPCB",11.0973603,77.3228673
India,TamilNadu,Tirupur,"Kumaran College, Tirupur - TNPCB",11.0973603,77.3228673
India,TamilNadu,Tirupur,"Kumaran College, Tirupur - TNPCB",11.0973603,77.3228673
India,TamilNadu,Vellore,"Vasanthapuram, Vellore - TNPCB",12.909494,79.131861
India,Telangana,Hyderabad,"Bollaram Industrial Area, Hyderabad - TSPCB",17.540891,78.358528
India,Telangana,Hyderabad,"Bollaram Industrial Area, Hyderabad - TSPCB",17.540891,78.358528
India,Telangana,Hyderabad,"Bollaram Industrial Area, Hyderabad - TSPCB",17.540891,78.358528
India,Telangana,Hyderabad,"ICRISAT Patancheru, Hyderabad - TSPCB",17.518400,78.278777
India,Telangana,Hyderabad,"ICRISAT Patancheru, Hyderabad - TSPCB",17.518400,78.278777
India,Telangana,Hyderabad,"Kokapet, Hyderabad - TSPCB",17.393559,78.339194
India,Telangana,Hyderabad,"Kokapet, Hyderabad - TSPCB",17.393559,78.339194
India,Telangana,Hyderabad,"Kokapet, Hyderabad - TSPCB",17.393559,78.339194
India,Telangana,Hyderabad,"Kompally Municipal Office, Hyderabad - TSPCB",17.544899,78.486949
India,Telangana,Hyderabad,"Kompally Municipal Office, Hyderabad - TSPCB",17.544899,78.486949
India,Telangana,Hyderabad,"Kompally Municipal Office, Hyderabad - TSPCB",17.544899,78.486949
India,Telangana,Hyderabad,"Nacharam_TSIIC IALA, Hyderabad - TSPCB",17.429398,78.569354
India,Telangana,Hyderabad,"Nacharam_TSIIC IALA, Hyderabad - TSPCB",17.429398,78.569354
India,Telangana,Hyderabad,"Ramachandrapuram, Hyderabad - TSPCB",17.528544,78.286195
India,Telangana,Hyderabad,"Ramachandrapuram, Hyderabad - TSPCB",17.528544,78.286195
India,Telangana,Hyderabad,"Sanathnagar, Hyderabad - TSPCB",17.4559458,78.4332152
India,Telangana,Hyderabad,"Somajiguda, Hyderabad - TSPCB",17.417094,78.457437
India,Telangana,Hyderabad,"Somajiguda, Hyderabad - TSPCB",17.417094,78.457437
India,Telangana,Hyderabad,"Somajiguda, Hyderabad - TSPCB",17.417094,78.457437
India,Telangana,Hyderabad,"Zoo Park, Hyderabad - TSPCB",17.349694,78.451437
India,Telangana,Hyderabad,"Zoo Park, Hyderabad - TSPCB",17.349694,78.451437
India,Tripura,Agartala,"Bardowali, Agartala - Tripura SPCB",23.8175497,91.2726974
India,Tripura,Agartala,"Bardowali, Agartala - Tripura SPCB",23.8175497,91.2726974
India,Uttar_Pradesh,Agra,"Manoharpur, Agra - UPPCB",27.23711,78.01936
India,Uttar_Pradesh,Agra,"Rohta, Agra - UPPCB",27.106972,78.000111
India,Uttar_Pradesh,Agra,"Sanjay Palace, Agra - UPPCB",27.19865833,78.00598056
India,Uttar_Pradesh,Agra,"Sanjay Palace, Agra - UPPCB",27.19865833,78.00598056
India,Uttar_Pradesh,Agra,"Sector-3B Avas Vikas Colony, Agra - UPPCB",27.19412,77.96237
India,Uttar_Pradesh,Agra,"Shahjahan Garden, Agra - UPPCB",27.169338,78.03582
India,Uttar_Pradesh,Agra,"Shastripuram, Agra - UPPCB",27.19862,77.92066
India,Uttar_Pradesh,Baghpat,"Sardar Patel Inter College, Baghpat - UPPCB",28.964949,77.278761
India,Uttar_Pradesh,Baghpat,"Sardar Patel Inter College, Baghpat - UPPCB",28.964949,77.278761
India,Uttar_Pradesh,Bareilly,"Civil Lines, Bareilly - UPPCB",28.359581,79.414455
India,Uttar_Pradesh,Bareilly,"Rajendra Nagar, Bareilly - UPPCB",28.38910936,79.42963708
India,Uttar_Pradesh,Bareilly,"Rajendra Nagar, Bareilly - UPPCB",28.38910936,79.42963708
India,Uttar_Pradesh,Bareilly,"Rajendra Nagar, Bareilly - UPPCB",28.38910936,79.42963708
India,Uttar_Pradesh,Ghaziabad,"Indirapuram, Ghaziabad - UPPCB",28.646233,77.358075
India,Uttar_Pradesh,Ghaziabad,"Indirapuram, Ghaziabad - UPPCB",28.646233,77.358075
India,Uttar_Pradesh,Ghaziabad,"Indirapuram, Ghaziabad - UPPCB",28.646233,77.358075
India,Uttar_Pradesh,Ghaziabad,"Loni, Ghaziabad - UPPCB",28.757294,77.278792
India,Uttar_Pradesh,Ghaziabad,"Vasundhara, Ghaziabad - UPPCB",28.6603346,77.3572563
India,Uttar_Pradesh,Ghaziabad,"Vasundhara, Ghaziabad - UPPCB",28.6603346,77.3572563
India,Uttar_Pradesh,Ghaziabad,"Vasundhara, Ghaziabad - UPPCB",28.6603346,77.3572563
India,Uttar_Pradesh,Gorakhpur,"Madan Mohan Malaviya University of Technology, Gorakhpur - UPPCB",26.730136,83.433859
India,Uttar_Pradesh,Greater Noida,"Knowledge Park - III, Greater Noida - UPPCB",28.47272,77.482000
India,Uttar_Pradesh,Greater Noida,"Knowledge Park - V, Greater Noida - UPPCB",28.557054,77.453663
India,Uttar_Pradesh,Hapur,"Anand Vihar, Hapur - UPPCB",28.725645,77.749675
India,Uttar_Pradesh,Jhansi,"Shivaji Nagar, Jhansi - UPPCB",25.4547,78.6039
India,Uttar_Pradesh,Jhansi,"Shivaji Nagar, Jhansi - UPPCB",25.4547,78.6039
India,Uttar_Pradesh,Kanpur,"FTI Kidwai Nagar, Kanpur - UPPCB",26.428282,80.327067
India,Uttar_Pradesh,Kanpur,"NSI Kalyanpur, Kanpur - UPPCB",26.509954,80.249612
India,Uttar_Pradesh,Kanpur,"NSI Kalyanpur, Kanpur - UPPCB",26.509954,80.249612
India,Uttar_Pradesh,Kanpur,"Nehru Nagar, Kanpur - UPPCB",26.4703136,80.3229863
India,Uttar_Pradesh,Lucknow,"Kendriya Vidyalaya, Lucknow - CPCB",26.906111,80.948222
India,Uttar_Pradesh,Lucknow,"Kendriya Vidyalaya, Lucknow - CPCB",26.906111,80.948222
India,Uttar_Pradesh,Lucknow,"Kukrail Picnic Spot-1, Lucknow - UPPCB",26.90723,80.98579
India,Uttar_Pradesh,Lucknow,"Kukrail Picnic Spot-1, Lucknow - UPPCB",26.90723,80.98579
India,Uttar_Pradesh,Lucknow,"Lalbagh, Lucknow - CPCB",26.8458805,80.9365541
India,Uttar_Pradesh,Meerut,"Ganga Nagar, Meerut - UPPCB",28.999264,77.7590354
India,Uttar_Pradesh,Meerut,"Jai Bhim Nagar, Meerut - UPPCB",28.9535882,77.7622941
India,Uttar_Pradesh,Meerut,"Pallavpuram Phase 2, Meerut - UPPCB",29.063510,77.709723
India,Uttar_Pradesh,Meerut,"Pallavpuram Phase 2, Meerut - UPPCB",29.063510,77.709723
India,Uttar_Pradesh,Meerut,"Pallavpuram Phase 2, Meerut - UPPCB",29.063510,77.709723
India,Uttar_Pradesh,Moradabad,"Buddhi Vihar, Moradabad - UPPCB",28.83526,78.74460
India,Uttar_Pradesh,Moradabad,"Employment Office, Moradabad - UPPCB",28.88528,78.73880
India,Uttar_Pradesh,Moradabad,"Employment Office, Moradabad - UPPCB",28.88528,78.73880
India,Uttar_Pradesh,Moradabad,"Jigar Colony, Moradabad - UPPCB",28.856664,78.772638
India,Uttar_Pradesh,Moradabad,"Kashiram Nagar, Moradabad - UPPCB",28.849399,78.742362
India,Uttar_Pradesh,Moradabad,"Kashiram Nagar, Moradabad - UPPCB",28.849399,78.742362
India,Uttar_Pradesh,Moradabad,"Kashiram Nagar, Moradabad - UPPCB",28.849399,78.742362
India,Uttar_Pradesh,Moradabad,"Kashiram Nagar, Moradabad - UPPCB",28.849399,78.742362
India,Uttar_Pradesh,Noida,"Sector - 62, Noida - IMD",28.6245479,77.3577104
India,Uttar_Pradesh,Prayagraj,"Jhunsi, Prayagraj - UPPCB",25.425602,81.917152
India,Uttar_Pradesh,Prayagraj,"Jhunsi, Prayagraj - UPPCB",25.425602,81.917152
India,Uttar_Pradesh,Prayagraj,"Jhunsi, Prayagraj - UPPCB",25.425602,81.917152
India,Uttar_Pradesh,Prayagraj,"Nagar Nigam, Prayagraj - UPPCB",25.44919916 ,81.82735986 
India,Uttar_Pradesh,Prayagraj,"Nagar Nigam, Prayagraj - UPPCB",25.44919916 ,81.82735986 
India,Uttar_Pradesh,Prayagraj,"Nagar Nigam, Prayagraj - UPPCB",25.44919916 ,81.82735986 
India,Uttar_Pradesh,Varanasi,"Ardhali Bazar, Varanasi - UPPCB",25.3505986,82.9083074
India,Uttar_Pradesh,Varanasi,"Bhelupur, Varanasi - UPPCB",25.301778,82.996789
India,Uttar_Pradesh,Varanasi,"Maldahiya, Varanasi - UPPCB",25.32393,82.99687
India,Uttar_Pradesh,Varanasi,"Maldahiya, Varanasi - UPPCB",25.32393,82.99687
India,Uttarakhand,Dehradun,"Doon University, Dehradun - UKPCB",30.269444,78.044167
India,Uttarakhand,Kashipur,"Govt. Girls Inter College, Kashipur - UKPCB",29.2124114,78.9611753
India,Uttarakhand,Rishikesh,"Shivaji Nagar, Rishikesh - UKPCB",30.075911,78.2859547
India,Uttarakhand,Rishikesh,"Shivaji Nagar, Rishikesh - UKPCB",30.075911,78.2859547
India,West_Bengal,Asansol,"Asansol Court Area, Asansol - WBPCB",23.685297,86.945968
India,West_Bengal,Durgapur,"Sidhu Kanhu Indoor Stadium, Durgapur - WBPCB",23.5404352,87.2892225
India,West_Bengal,Durgapur,"Sidhu Kanhu Indoor Stadium, Durgapur - WBPCB",23.5404352,87.2892225
India,West_Bengal,Haldia,"Priyambada Housing Estate, Haldia - WBPCB",22.06047,88.109737
India,West_Bengal,Howrah,"Belur Math, Howrah - WBPCB",22.629801,88.352017
India,West_Bengal,Howrah,"Belur Math, Howrah - WBPCB",22.629801,88.352017
India,West_Bengal,Howrah,"Ghusuri, Howrah - WBPCB",22.611968,88.347422
India,West_Bengal,Howrah,"Ghusuri, Howrah - WBPCB",22.611968,88.347422
India,West_Bengal,Howrah,"Ghusuri, Howrah - WBPCB",22.611968,88.347422
India,West_Bengal,Kolkata,"Ballygunge, Kolkata - WBPCB",22.5367507,88.3638022
India,West_Bengal,Kolkata,"Ballygunge, Kolkata - WBPCB",22.5367507,88.3638022
India,West_Bengal,Kolkata,"Bidhannagar, Kolkata - WBPCB",22.58157048,88.41002457
India,West_Bengal,Kolkata,"Bidhannagar, Kolkata - WBPCB",22.58157048,88.41002457
India,West_Bengal,Kolkata,"Fort William, Kolkata - WBPCB",22.556640,88.342674
India,West_Bengal,Kolkata,"Fort William, Kolkata - WBPCB",22.556640,88.342674
India,West_Bengal,Kolkata,"Jadavpur, Kolkata - WBPCB",22.49929,88.36917
India,West_Bengal,Kolkata,"Rabindra Bharati University, Kolkata - WBPCB",22.627847,88.380669
India,West_Bengal,Kolkata,"Rabindra Bharati University, Kolkata - WBPCB",22.627847,88.380669
India,West_Bengal,Kolkata,"Rabindra Sarobar, Kolkata - WBPCB",22.51106,88.35142
India,West_Bengal,Kolkata,"Rabindra Sarobar, Kolkata - WBPCB",22.51106,88.35142
India,Andhra_Pradesh,Rajamahendravaram,"Anand Kala Kshetram, Rajamahendravaram - APPCB",16.9872867,81.7363176
India,Andhra_Pradesh,Tirupati,"Tirumala, Tirupati - APPCB",13.67,79.35
India,Andhra_Pradesh,Vijayawada,"HB Colony, Vijayawada - APPCB",16.536107,80.594233
India,Andhra_Pradesh,Vijayawada,"HB Colony, Vijayawada - APPCB",16.536107,80.594233
India,Andhra_Pradesh,Vijayawada,"Kanuru, Vijayawada - APPCB",16.486692,80.699436
India,Andhra_Pradesh,Vijayawada,"Kanuru, Vijayawada - APPCB",16.486692,80.699436
India,Andhra_Pradesh,Vijayawada,"Kanuru, Vijayawada - APPCB",16.486692,80.699436
India,Andhra_Pradesh,Vijayawada,"Kanuru, Vijayawada - APPCB",16.486692,80.699436
India,Andhra_Pradesh,Vijayawada,"Rajiv Gandhi Park, Vijayawada - APPCB",16.509717,80.612222
India,Andhra_Pradesh,Vijayawada,"Rajiv Gandhi Park, Vijayawada - APPCB",16.509717,80.612222
India,Andhra_Pradesh,Vijayawada,"Rajiv Gandhi Park, Vijayawada - APPCB",16.509717,80.612222
India,Andhra_Pradesh,Visakhapatnam,"GVM Corporation, Visakhapatnam - APPCB",17.72,83.3
India,Andhra_Pradesh,Visakhapatnam,"GVM Corporation, Visakhapatnam - APPCB",17.72,83.3
India,Arunachal_Pradesh,Naharlagun,"Naharlagun, Naharlagun - APSPCB",27.103358,93.679645
India,Arunachal_Pradesh,Naharlagun,"Naharlagun, Naharlagun - APSPCB",27.103358,93.679645
India,Assam,Byrnihat,"Central Academy for SFS, Byrnihat - PCBA",26.071318,91.87488
India,Assam,Byrnihat,"Central Academy for SFS, Byrnihat - PCBA",26.071318,91.87488
India,Assam,Guwahati,"LGBI Airport, Guwahati - PCBA",26.10887,91.589544
India,Assam,Guwahati,"LGBI Airport, Guwahati - PCBA",26.10887,91.589544
India,Assam,Guwahati,"Pan Bazaar, Guwahati - PCBA",26.187500,91.744194
India,Assam,Guwahati,"Railway Colony, Guwahati - PCBA",26.181742,91.78063
India,Assam,Nagaon,"Christianpatty, Nagaon - PCBA",26.349082,92.68449
India,Assam,Silchar,"Tarapur, Silchar - PCBA",24.82827,92.79525
India,Assam,Silchar,"Tarapur, Silchar - PCBA",24.82827,92.79525
India,Assam,Sivasagar,"Girls College, Sivasagar - PCBA",26.987634,94.636574
India,Bihar,Araria,"Kharahiya Basti, Araria - BSPCB",26.146529,87.454184
India,Bihar,Arrah,"New DM Office, Arrah - BSPCB",25.5626095,84.663264
India,Bihar,Arrah,"New DM Office, Arrah - BSPCB",25.5626095,84.663264
India,Bihar,Aurangabad,"Gurdeo Nagar, Aurangabad - BSPCB",24.75746,84.366208
India,Bihar,Aurangabad,"Gurdeo Nagar, Aurangabad - BSPCB",24.75746,84.366208
India,Bihar,Aurangabad,"Gurdeo Nagar, Aurangabad - BSPCB",24.75746,84.366208
India,Bihar,Bettiah,"Kamalnath Nagar, Bettiah - BSPCB",26.80365,84.51954
India,Bihar,Bhagalpur,"DM Office_Kachari Chowk, Bhagalpur - BSPCB",25.251013,86.989001
India,Bihar,Bhagalpur,"DM Office_Kachari Chowk, Bhagalpur - BSPCB",25.251013,86.989001
India,Bihar,Bhagalpur,"Mayaganj, Bhagalpur - BSPCB",25.265194,87.012947
India,Bihar,Bhagalpur,"Mayaganj, Bhagalpur - BSPCB",25.265194,87.012947
India,Bihar,Chhapra,"Darshan Nagar, Chhapra - BSPCB",25.7808257,84.7446768
India,Bihar,Chhapra,"Darshan Nagar, Chhapra - BSPCB",25.7808257,84.7446768
India,Bihar,Chhapra,"Darshan Nagar, Chhapra - BSPCB",25.7808257,84.7446768
India,Bihar,Gaya,"Collectorate, Gaya - BSPCB",24.7955,84.9994
India,Bihar,Gaya,"Collectorate, Gaya - BSPCB",24.7955,84.9994
India,Bihar,Gaya,"Collectorate, Gaya - BSPCB",24.7955,84.9994
India,Bihar,Gaya,"Collectorate, Gaya - BSPCB",24.7955,84.9994
India,Bihar,Gaya,"Kareemganj, Gaya - BSPCB",24.792403,84.992416
India,Bihar,Gaya,"SFTI Kusdihra, Gaya - BSPCB",24.762518,84.982348
India,Bihar,Gaya,"SFTI Kusdihra, Gaya - BSPCB",24.762518,84.982348
India,Bihar,Hajipur,"Industrial Area, Hajipur - BSPCB",25.697189,85.245900
India,Bihar,Katihar,"Mirchaibari, Katihar - BSPCB",25.560083,87.553265
India,Bihar,Kishanganj,"SDM Office_Khagra, Kishanganj - BSPCB",26.0881305,87.93840336
India,Bihar,Manguraha,"Forest Rest House, Manguraha - BSPCB",27.308328,84.531742
India,Bihar,Manguraha,"Forest Rest House, Manguraha - BSPCB",27.308328,84.531742
India,Bihar,Motihari,"Gandak Colony, Motihari - BSPCB",26.63086,84.90051
India,Bihar,Munger,"Town Hall, Munger - BSPCB",25.376776,86.471523
India,Bihar,Munger,"Town Hall, Munger - BSPCB",25.376776,86.471523
India,Bihar,Muzaffarpur,"Buddha Colony, Muzaffarpur - BSPCB",26.11442,85.39813
India,Bihar,Muzaffarpur,"Muzaffarpur Collectorate, Muzaffarpur - BSPCB",26.1209,85.3647
India,Bihar,Patna,"DRM Office Danapur, Patna - BSPCB",25.586562,85.043586
India,Bihar,Patna,"DRM Office Danapur, Patna - BSPCB",25.586562,85.043586
India,Bihar,Patna,"DRM Office Danapur, Patna - BSPCB",25.586562,85.043586
India,Bihar,Patna,"DRM Office Danapur, Patna - BSPCB",25.586562,85.043586
India,Bihar,Patna,"IGSC Planetarium Complex, Patna - BSPCB",25.610369,85.132568
India,Bihar,Patna,"IGSC Planetarium Complex, Patna - BSPCB",25.610369,85.132568
India,Bihar,Patna,"Muradpur, Patna - BSPCB",25.619651,85.147382
India,Bihar,Patna,"Muradpur, Patna - BSPCB",25.619651,85.147382
India,Bihar,Patna,"Samanpura, Patna - BSPCB",25.596727,85.085624
India,Bihar,Patna,"Samanpura, Patna - BSPCB",25.596727,85.085624
India,Bihar,Patna,"Samanpura, Patna - BSPCB",25.596727,85.085624
India,Bihar,Samastipur,"DM Office_Kasipur, Samastipur - BSPCB",25.859655,85.77944
India,Bihar,Sasaram,"Dada Peer, Sasaram - BSPCB",24.952822,84.002396
India,Chandigarh,Chandigarh,"Sector 22, Chandigarh - CPCC",30.735567,76.775714
India,Chhattisgarh,Bhilai,"32Bungalows, Bhilai - CECB",21.194815,81.314770
India,Chhattisgarh,Bilaspur,"Mangala, Bilaspur - NTPC",22.08815,82.13737
India,Chhattisgarh,Korba,"Rampur, Korba - CECB",22.368195,82.746431
India,Chhattisgarh,Korba,"Rampur, Korba - CECB",22.368195,82.746431
India,Chhattisgarh,Korba,"Urja Nagar, Korba - CECB",22.348441,82.549611
India,Chhattisgarh,Korba,"Urja Nagar, Korba - CECB",22.348441,82.549611
India,Chhattisgarh,Kunjemura,"OP Jindal School, Kunjemura - CECB",22.126650,83.483212
India,Chhattisgarh,Kunjemura,"OP Jindal School, Kunjemura - CECB",22.126650,83.483212
India,Chhattisgarh,Kunjemura,"OP Jindal School, Kunjemura - CECB",22.126650,83.483212
India,Chhattisgarh,Milupara,"Govt. Higher Secondary School, Milupara - CECB",22.1910172,83.5197009
India,Chhattisgarh,Raipur,"AIIMS, Raipur - CECB",21.258815,81.578979
India,Chhattisgarh,Raipur,"Bhatagaon New ISBT, Raipur - CECB",21.219665,81.630094
India,Chhattisgarh,Raipur,"Bhatagaon New ISBT, Raipur - CECB",21.219665,81.630094
India,Chhattisgarh,Raipur,"Krishak Nagar, Raipur - CECB",21.237755,81.705301
India,Chhattisgarh,Raipur,"Krishak Nagar, Raipur - CECB",21.237755,81.705301
India,Chhattisgarh,Raipur,"Siltara Phase-II, Raipur - CECB",21.371751,81.664929
India,Chhattisgarh,Tumidih,"OP Jindal Industrial Park, Tumidih - CECB",22.06631475,83.33820077
India,Delhi,Delhi,"Alipur, Delhi - DPCC",28.815329,77.153010
India,Delhi,Delhi,"Alipur, Delhi - DPCC",28.815329,77.153010
India,Delhi,Delhi,"Alipur, Delhi - DPCC",28.815329,77.153010
India,Delhi,Delhi,"Anand Vihar, Delhi - DPCC",28.647622,77.3158090
India,Delhi,Delhi,"Anand Vihar, Delhi - DPCC",28.647622,77.3158090
India,Delhi,Delhi,"Anand Vihar, Delhi - DPCC",28.647622,77.3158090
India,Delhi,Delhi,"Aya Nagar, Delhi - IMD",28.4706914,77.1099364
India,Delhi,Delhi,"Bawana, Delhi - DPCC",28.776200,77.051074
India,Delhi,Delhi,"CRRI Mathura Road, Delhi - IMD",28.5512005,77.2735737
India,Delhi,Delhi,"CRRI Mathura Road, Delhi - IMD",28.5512005,77.2735737
India,Delhi,Delhi,"Dr. Karni Singh Shooting Range, Delhi - DPCC",28.498571,77.264840
India,Delhi,Delhi,"Dr. Karni Singh Shooting Range, Delhi - DPCC",28.498571,77.264840
India,Delhi,Delhi,"IHBAS, Dilshad Garden, Delhi - CPCB",28.6811736,77.3025234
India,Delhi,Delhi,"IHBAS, Dilshad Garden, Delhi - CPCB",28.6811736,77.3025234
India,Delhi,Delhi,"ITO, Delhi - CPCB",28.628624,77.241060
India,Delhi,Delhi,"ITO, Delhi - CPCB",28.628624,77.241060
India,Delhi,Delhi,"ITO, Delhi - CPCB",28.628624,77.241060
India,Delhi,Delhi,"Lodhi Road, Delhi - IMD",28.5918245,77.2273074
India,Delhi,Delhi,"Lodhi Road, Delhi - IMD",28.5918245,77.2273074
India,Delhi,Delhi,"Major Dhyan Chand National Stadium, Delhi - DPCC",28.611281,77.237738
India,Delhi,Delhi,"Mandir Marg, Delhi - DPCC",28.636429,77.201067
India,Delhi,Delhi,"Mandir Marg, Delhi - DPCC",28.636429,77.201067
India,Delhi,Delhi,"Mandir Marg, Delhi - DPCC",28.636429,77.201067
India,Delhi,Delhi,"Mundka, Delhi - DPCC",28.684678,77.076574
India,Delhi,Delhi,"Mundka, Delhi - DPCC",28.684678,77.076574
India,Delhi,Delhi,"NSIT Dwarka, Delhi - CPCB",28.60909,77.0325413
India,Delhi,Delhi,"Najafgarh, Delhi - DPCC",28.570173,76.933762
India,Delhi,Delhi,"Narela, Delhi - DPCC",28.822836,77.101981
India,Delhi,Delhi,"Nehru Nagar, Delhi - DPCC",28.567890,77.250515
India,Delhi,Delhi,"Nehru Nagar, Delhi - DPCC",28.567890,77.250515
India,Delhi,Delhi,"New Moti Bagh, Delhi - MHUA",28.57834,77.18400
India,Delhi,Delhi,"Okhla Phase-2, Delhi - DPCC",28.530785,77.271255
India,Delhi,Delhi,"Okhla Phase-2, Delhi - DPCC",28.530785,77.271255
India,Delhi,Delhi,"Punjabi Bagh, Delhi - DPCC",28.674045,77.131023
India,Delhi,Delhi,"Punjabi Bagh, Delhi - DPCC",28.674045,77.131023
India,Delhi,Delhi,"Punjabi Bagh, Delhi - DPCC",28.674045,77.131023
India,Delhi,Delhi,"Pusa, Delhi - DPCC",28.639652,77.146275
India,Delhi,Delhi,"Pusa, Delhi - DPCC",28.639652,77.146275
India,Delhi,Delhi,"Pusa, Delhi - DPCC",28.639652,77.146275
India,Delhi,Delhi,"Pusa, Delhi - IMD",28.636110,77.173332
India,Delhi,Delhi,"R K Puram, Delhi - DPCC",28.563262,77.186937
India,Delhi,Delhi,"Rohini, Delhi - DPCC",28.732528,77.119920
India,Delhi,Delhi,"Shadipur, Delhi - CPCB",28.6514781,77.1473105
India,Delhi,Delhi,"Sirifort, Delhi - CPCB",28.5504249,77.2159377
India,Delhi,Delhi,"Sirifort, Delhi - CPCB",28.5504249,77.2159377
India,Delhi,Delhi,"Sonia Vihar, Delhi - DPCC",28.710508,77.249485
India,Delhi,Delhi,"Vivek Vihar, Delhi - DPCC",28.672342,77.315260
India,Delhi,Delhi,"Vivek Vihar, Delhi - DPCC",28.672342,77.315260
India,Delhi,Delhi,"Vivek Vihar, Delhi - DPCC",28.672342,77.315260
India,Delhi,Delhi,"Wazirpur, Delhi - DPCC",28.699793,77.165453
India,Delhi,Delhi,"Wazirpur, Delhi - DPCC",28.699793,77.165453
India,Delhi,Delhi,"Wazirpur, Delhi - DPCC",28.699793,77.165453
India,Gujarat,Ahmedabad,"Gyaspur, Ahmedabad - IITM",22.977134,72.553024
India,Gujarat,Ahmedabad,"Maninagar, Ahmedabad - GPCB",23.002657,72.591912
India,Gujarat,Ahmedabad,"Maninagar, Ahmedabad - GPCB",23.002657,72.591912
India,Gujarat,Ahmedabad,"Raikhad, Ahmedabad - IITM",23.020509,72.579261
India,Gujarat,Ahmedabad,"Rakhial, Ahmedabad - IITM",23.016834,72.625775
India,Gujarat,Ahmedabad,"SAC ISRO Bopal, Ahmedabad - IITM",23.041137,72.456691
India,Gujarat,Ahmedabad,"SAC ISRO Bopal, Ahmedabad - IITM",23.041137,72.456691
India,Gujarat,Ahmedabad,"SAC ISRO Bopal, Ahmedabad - IITM",23.041137,72.456691
India,Gujarat,Ahmedabad,"SAC ISRO Satellite, Ahmedabad - IITM",23.023389,72.515201
India,Gujarat,Ahmedabad,"Sardar Vallabhbhai Patel Stadium, Ahmedabad - IITM",23.043070,72.562968
India,Gujarat,Ankleshwar,"GIDC, Ankleshwar - GPCB",21.613267,73.010555
India,Gujarat,Ankleshwar,"GIDC, Ankleshwar - GPCB",21.613267,73.010555
India,Gujarat,Gandhinagar,"GIFT City, Gandhinagar - IITM",23.163798,72.677768
India,Gujarat,Gandhinagar,"IIPHG Lekawada, Gandhinagar - IITM",23.243639,72.68994
India,Gujarat,Gandhinagar,"Sector-10, Gandhinagar - GPCB",23.221714,72.654328
India,Gujarat,Surat,"Science Center, Surat - SMC",21.170046,72.795405
India,Gujarat,Vapi,"Phase-1 GIDC, Vapi - GPCB",20.362421,72.918013
India,Gujarat,Vapi,"Phase-1 GIDC, Vapi - GPCB",20.362421,72.918013
India,Haryana,Ambala,"Patti Mehar, Ambala - HSPCB",30.379589,76.778328
India,Haryana,Ballabgarh,"Nathu Colony, Ballabgarh - HSPCB",28.3419248,77.319699
India,Haryana,Ballabgarh,"Nathu Colony, Ballabgarh - HSPCB",28.3419248,77.319699
India,Haryana,Bhiwani,"H.B. Colony, Bhiwani - HSPCB",28.806223,76.141105
India,Haryana,Dharuhera,"Municipal Corporation Office, Dharuhera -  HSPCB",28.206800,76.799700
India,Haryana,Dharuhera,"Municipal Corporation Office, Dharuhera -  HSPCB",28.206800,76.799700
India,Haryana,Dharuhera,"Municipal Corporation Office, Dharuhera -  HSPCB",28.206800,76.799700
India,Haryana,Faridabad,"New Industrial Town, Faridabad - HSPCB",28.39072,77.30059
India,Haryana,Faridabad,"New Industrial Town, Faridabad - HSPCB",28.39072,77.30059
India,Haryana,Faridabad,"Sector 30, Faridabad - HSPCB",28.4417,77.3217
India,Haryana,Faridabad,"Sector- 16A, Faridabad - HSPCB",28.4088421,77.3099081
India,Haryana,Fatehabad,"Huda Sector, Fatehabad - HSPCB",29.503664,75.467934
India,Haryana,Fatehabad,"Huda Sector, Fatehabad - HSPCB",29.503664,75.467934
India,Haryana,Gurugram,"NISE Gwal Pahari, Gurugram - IMD",28.422681,77.148944
India,Haryana,Gurugram,"NISE Gwal Pahari, Gurugram - IMD",28.422681,77.148944
India,Haryana,Gurugram,"Sector-51, Gurugram - HSPCB",28.4227,77.0667
India,Haryana,Gurugram,"Sector-51, Gurugram - HSPCB",28.4227,77.0667
India,Haryana,Gurugram,"Teri Gram, Gurugram - HSPCB",28.4275,77.1465
India,Haryana,Gurugram,"Teri Gram, Gurugram - HSPCB",28.4275,77.1465
India,Haryana,Hisar,"Urban Estate-II, Hisar - HSPCB",29.140560,75.744941
India,Haryana,Jind,"Police Lines, Jind - HSPCB",29.307814,76.337619
India,Haryana,Jind,"Police Lines, Jind - HSPCB",29.307814,76.337619
India,Haryana,Jind,"Police Lines, Jind - HSPCB",29.307814,76.337619
India,Haryana,Jind,"Police Lines, Jind - HSPCB",29.307814,76.337619
India,Haryana,Kaithal,"Rishi Nagar, Kaithal - HSPCB",29.8006,76.4155
India,Haryana,Kaithal,"Rishi Nagar, Kaithal - HSPCB",29.8006,76.4155
India,Haryana,Kaithal,"Rishi Nagar, Kaithal - HSPCB",29.8006,76.4155
India,Haryana,Kurukshetra,"Sector-7, Kurukshetra - HSPCB",29.966942,76.875879
India,Haryana,Mandikhera,"General Hospital, Mandikhera - HSPCB",27.9002,76.9938
India,Haryana,Manesar,"Sector-2 IMT, Manesar - HSPCB",28.360699,76.936090
India,Haryana,Manesar,"Sector-2 IMT, Manesar - HSPCB",28.360699,76.936090
India,Haryana,Manesar,"Sector-2 IMT, Manesar - HSPCB",28.360699,76.936090
India,Haryana,Palwal,"Shyam Nagar, Palwal - HSPCB",28.1485564,77.3320667
India,Haryana,Panchkula,"Sector-6, Panchkula - HSPCB ",30.7057778,76.8531805555555
India,Haryana,Panchkula,"Sector-6, Panchkula - HSPCB ",30.7057778,76.8531805555555
India,Haryana,Panipat,"Sector-18, Panipat - HSPCB",29.497973,76.993331
India,Haryana,Sonipat,"Murthal, Sonipat - HSPCB",29.027200,77.062100
India,Haryana,Sonipat,"Murthal, Sonipat - HSPCB",29.027200,77.062100
India,Haryana,Sonipat,"Murthal, Sonipat - HSPCB",29.027200,77.062100
India,Haryana,Yamuna Nagar,"Gobind Pura, Yamuna Nagar - HSPCB",30.1480566,77.2893471
India,Himachal Pradesh,Baddi,"HIMUDA Complex Phase-1, Baddi - HPPCB",30.943887,76.801991
India,Jharkhand,Dhanbad,"Kalakusuma, Dhanbad - DMC",23.811548,86.481238
India,Jharkhand,Dhanbad,"Sardar Patel Nagar, Dhanbad - JSPCB",23.80569,86.44268
India,Karnataka,Bagalkot,"Vidayagiri, Bagalkot - KSPCB",16.172806,75.659694
India,Karnataka,Bagalkot,"Vidayagiri, Bagalkot - KSPCB",16.172806,75.659694
India,Karnataka,Belgaum,"Ramteerth Nagar, Belgaum - KSPCB",15.888653,74.541751
India,Karnataka,Belgaum,"Ramteerth Nagar, Belgaum - KSPCB",15.888653,74.541751
India,Karnataka,Bengaluru,"BTM Layout, Bengaluru - CPCB",12.9135218,77.5950804
India,Karnataka,Bengaluru,"Hebbal, Bengaluru - KSPCB",13.029152,77.585901
India,Karnataka,Bengaluru,"Jayanagar 5th Block, Bengaluru - KSPCB",12.920984,77.584908
India,Karnataka,Bengaluru,"Jayanagar 5th Block, Bengaluru - KSPCB",12.920984,77.584908
India,Karnataka,Bengaluru,"Kasturi Nagar, Bengaluru - KSPCB",13.003872,77.664217
India,Karnataka,Bengaluru,"RVCE-Mailasandra, Bengaluru - KSPCB",12.921418,77.502466
India,Karnataka,Bengaluru,"RVCE-Mailasandra, Bengaluru - KSPCB",12.921418,77.502466
India,Karnataka,Bengaluru,"Shivapura_Peenya, Bengaluru - KSPCB",13.0246342,77.5080115
India,Karnataka,Bengaluru,"Shivapura_Peenya, Bengaluru - KSPCB",13.0246342,77.5080115
India,Karnataka,Bengaluru,"Shivapura_Peenya, Bengaluru - KSPCB",13.0246342,77.5080115
India,Karnataka,Bengaluru,"Silk Board, Bengaluru - KSPCB",12.917348,77.622813
India,Karnataka,Bidar,"Naubad, Bidar - KSPCB",17.930306,77.482194
India,Karnataka,Bidar,"Naubad, Bidar - KSPCB",17.930306,77.482194
India,Karnataka,Bidar,"Naubad, Bidar - KSPCB",17.930306,77.482194
India,Karnataka,Chamarajanagar,"Urban, Chamarajanagar - KSPCB",11.55358,76.55521
India,Karnataka,Chamarajanagar,"Urban, Chamarajanagar - KSPCB",11.55358,76.55521
India,Karnataka,Chamarajanagar,"Urban, Chamarajanagar - KSPCB",11.55358,76.55521
India,Karnataka,Chikkaballapur,"Chikkaballapur Rural, Chikkaballapur - KSPCB",13.428828,77.731418
India,Karnataka,Chikkamagaluru,"Kalyana Nagara, Chikkamagaluru - KSPCB",13.328028,75.797056
India,Karnataka,Davanagere,"Devaraj Urs Badavane, Davanagere - KSPCB",14.475800,75.905200
India,Karnataka,Dharwad,"Kalabhavan, Dharwad - KSPCB",15.459706,75.008381
India,Karnataka,Dharwad,"Kalabhavan, Dharwad - KSPCB",15.459706,75.008381
India,Karnataka,Gadag,"Panchal Nagar, Gadag - KSPCB",15.411456,75.638133
India,Karnataka,Gadag,"Panchal Nagar, Gadag - KSPCB",15.411456,75.638133
India,Karnataka,Gadag,"Panchal Nagar, Gadag - KSPCB",15.411456,75.638133
India,Karnataka,Haveri,"Ashwini Nagar, Haveri - KSPCB",14.791800,75.389600
India,Karnataka,Haveri,"Ashwini Nagar, Haveri - KSPCB",14.791800,75.389600
India,Karnataka,Hubballi,"Deshpande Nagar, Hubballi - KSPCB",15.351773,75.140726
India,Karnataka,Hubballi,"Deshpande Nagar, Hubballi - KSPCB",15.351773,75.140726
India,Karnataka,Hubballi,"Lingaraj Nagar, Hubballi - KSPCB",15.3714823,75.1160168
India,Karnataka,Hubballi,"Lingaraj Nagar, Hubballi - KSPCB",15.3714823,75.1160168
India,Karnataka,Kalaburagi,"Lal Bahadur Shastri Nagar, Kalaburagi - KSPCB",17.321993,76.822628
India,Karnataka,Karwar,"KHB Colony, Karwar - KSPCB",14.816666,74.141003
India,Karnataka,Karwar,"KHB Colony, Karwar - KSPCB",14.816666,74.141003
India,Karnataka,Koppal,"Diwator Nagar, Koppal - KSPCB",15.347630,76.181767
India,Karnataka,Madikeri,"Stuart Hill, Madikeri - KSPCB",12.415911,75.735050
India,Karnataka,Mangalore,"Kadri, Mangalore - KSPCB",12.889250,74.853000
India,Karnataka,Mangalore,"Kadri, Mangalore - KSPCB",12.889250,74.853000
India,Karnataka,Mysuru,"Hebbal 1st Stage, Mysuru - KSPCB",12.21041,76.37376
India,Karnataka,Mysuru,"Hebbal 1st Stage, Mysuru - KSPCB",12.21041,76.37376
India,Karnataka,Raichur,"Haji Colony, Raichur - KSPCB",16.208139,77.348417
India,Karnataka,Ramanagara,"Vijay Nagar, Ramanagara - KSPCB",12.733409,77.298051
India,Karnataka,Udupi,"Brahmagiri, Udupi - KSPCB",13.34194444,74.74694444
India,Karnataka,Vijayapura,"Ibrahimpur, Vijayapura - KSPCB",16.802639,75.722694
India,Karnataka,Vijayapura,"Ibrahimpur, Vijayapura - KSPCB",16.802639,75.722694
India,Kerala,Eloor,"Udyogamandal, Eloor - Kerala PCB",10.073232,76.302765
India,Kerala,Eloor,"Udyogamandal, Eloor - Kerala PCB",10.073232,76.302765
India,Kerala,Eloor,"Udyogamandal, Eloor - Kerala PCB",10.073232,76.302765
India,Kerala,Kannur,"Thavakkara, Kannur - Kerala PCB",11.875000,75.373200
India,Kerala,Kollam,"Polayathode, Kollam - Kerala PCB",8.8787,76.6073
India,Kerala,Thiruvananthapuram,"Kariavattom, Thiruvananthapuram - Kerala PCB",8.563700,76.886500
India,Kerala,Thiruvananthapuram,"Kariavattom, Thiruvananthapuram - Kerala PCB",8.563700,76.886500
India,Kerala,Thiruvananthapuram,"Kariavattom, Thiruvananthapuram - Kerala PCB",8.563700,76.886500
India,Madhya Pradesh,Bhopal,"Paryavaran Parisar, Bhopal - MPPCB",23.210494,77.425409
India,Madhya Pradesh,Bhopal,"Paryavaran Parisar, Bhopal - MPPCB",23.210494,77.425409
India,Madhya Pradesh,Bhopal,"Paryavaran Parisar, Bhopal - MPPCB",23.210494,77.425409
India,Madhya Pradesh,Bhopal,"Paryavaran Parisar, Bhopal - MPPCB",23.210494,77.425409
India,Madhya Pradesh,Bhopal,"T T Nagar, Bhopal - MPPCB",23.233584,77.400574
India,Madhya Pradesh,Bhopal,"T T Nagar, Bhopal - MPPCB",23.233584,77.400574
India,Madhya Pradesh,Damoh,"Shrivastav Colony, Damoh - MPPCB",23.81748678,79.446246
India,Madhya Pradesh,Dewas,"Bhopal Chauraha, Dewas - MPPCB",22.9682591,76.064118
India,Madhya Pradesh,Dewas,"Bhopal Chauraha, Dewas - MPPCB",22.9682591,76.064118
India,Madhya Pradesh,Dewas,"Bhopal Chauraha, Dewas - MPPCB",22.9682591,76.064118
India,Madhya Pradesh,Gwalior,"City Center, Gwalior - MPPCB",26.203442,78.193251
India,Madhya Pradesh,Gwalior,"Deen Dayal Nagar, Gwalior - MPPCB",26.259242,78.216432
India,Madhya Pradesh,Gwalior,"Maharaj Bada, Gwalior - MPPCB",26.200388,78.147714
India,Madhya Pradesh,Gwalior,"Maharaj Bada, Gwalior - MPPCB",26.200388,78.147714
India,Madhya Pradesh,Gwalior,"Phool Bagh, Gwalior - Mondelez Ind. Food",26.210536,78.171
India,Madhya Pradesh,Gwalior,"Phool Bagh, Gwalior - Mondelez Ind. Food",26.210536,78.171
India,Madhya Pradesh,Indore,"Chhoti Gwaltoli, Indore - MPPCB",22.4310,75.5213
India,Madhya Pradesh,Indore,"Chhoti Gwaltoli, Indore - MPPCB",22.4310,75.5213
India,Madhya Pradesh,Indore,"Chhoti Gwaltoli, Indore - MPPCB",22.4310,75.5213
India,Madhya Pradesh,Indore,"Maguda Nagar, Indore - IMC",22.7524,75.8872
India,Madhya Pradesh,Jabalpur,"Govindh Bhavan Colony, Jabalpur - JMC",23.163174,79.973061
India,Madhya Pradesh,Jabalpur,"Govindh Bhavan Colony, Jabalpur - JMC",23.163174,79.973061
India,Madhya Pradesh,Jabalpur,"Marhatal, Jabalpur - MPPCB",23.168606,79.932247
India,Madhya Pradesh,Jabalpur,"Marhatal, Jabalpur - MPPCB",23.168606,79.932247
India,Madhya Pradesh,Jabalpur,"Marhatal, Jabalpur - MPPCB",23.168606,79.932247
India,Madhya Pradesh,Katni,"Gole Bazar, Katni - MPPCB",23.50016,80.23284
India,Madhya Pradesh,Maihar,"Sahilara, Maihar - KJS Cements",24.2613009,80.7231783
India,Madhya Pradesh,Mandideep,"Sector-D Industrial Area, Mandideep - MPPCB",23.108440,77.511428
India,Madhya Pradesh,Mandideep,"Sector-D Industrial Area, Mandideep - MPPCB",23.108440,77.511428
India,Madhya Pradesh,Ratlam,"Shasthri Nagar, Ratlam - IPCA Lab",23.331731,75.045981
India,Madhya Pradesh,Sagar,"Civil Lines, Sagar - MPPCB",23.838586,78.759431
India,Madhya Pradesh,Sagar,"Civil Lines, Sagar - MPPCB",23.838586,78.759431
India,Madhya Pradesh,Sagar,"Civil Lines, Sagar - MPPCB",23.838586,78.759431
India,Madhya Pradesh,Sagar,"Deen Dayal Nagar, Sagar - MPPCB",23.8640158,78.80289321
India,Madhya Pradesh,Sagar,"Deen Dayal Nagar, Sagar - MPPCB",23.8640158,78.80289321
India,Madhya Pradesh,Satna,"Bandhavgar Colony, Satna - Birla Cement",24.58434363,80.8549414
India,Madhya Pradesh,Satna,"Bandhavgar Colony, Satna - Birla Cement",24.58434363,80.8549414
India,Madhya Pradesh,Singrauli,"Suryakiran Bhawan NCL, Singrauli - MPPCB",24.108970,82.645580
India,Madhya Pradesh,Singrauli,"Suryakiran Bhawan NCL, Singrauli - MPPCB",24.108970,82.645580
India,Maharashtra,Akola,"Ramdaspeth, Akola - MPCB",20.719516,77.000253
India,Maharashtra,Akola,"Ramdaspeth, Akola - MPCB",20.719516,77.000253
India,Maharashtra,Amravati,"Shivneri Colony, Amravati - MPCB",20.9402359,77.7895248
India,Maharashtra,Amravati,"Shivneri Colony, Amravati - MPCB",20.9402359,77.7895248
India,Maharashtra,Amravati,"Shivneri Colony, Amravati - MPCB",20.9402359,77.7895248
India,Maharashtra,Amravati,"Shri Shivaji Science College, Amaravati - MPCB",20.939198,77.765701
India,Maharashtra,Amravati,"Shri Shivaji Science College, Amaravati - MPCB",20.939198,77.765701
India,Maharashtra,Aurangabad,"MIDC Chilkalthana, Aurangabad - MPCB",19.875620,75.387310
India,Maharashtra,Aurangabad,"MIDC Chilkalthana, Aurangabad - MPCB",19.875620,75.387310
India,Maharashtra,Aurangabad,"MIDC Chilkalthana, Aurangabad - MPCB",19.875620,75.387310
India,Maharashtra,Aurangabad,"MIDC Chilkalthana, Aurangabad - MPCB",19.875620,75.387310
India,Maharashtra,Aurangabad,"More Chowk Waluj, Aurangabad - MPCB",19.8389439,75.244448
India,Maharashtra,Aurangabad,"More Chowk Waluj, Aurangabad - MPCB",19.8389439,75.244448
India,Maharashtra,Aurangabad,"More Chowk Waluj, Aurangabad - MPCB",19.8389439,75.244448
India,Maharashtra,Aurangabad,"Rachnakar Colony, Aurangabad - MPCB",19.863756,75.321188
India,Maharashtra,Aurangabad,"Rachnakar Colony, Aurangabad - MPCB",19.863756,75.321188
India,Maharashtra,Aurangabad,"Rachnakar Colony, Aurangabad - MPCB",19.863756,75.321188
India,Maharashtra,Badlapur,"Katrap, Badlapur - MPCB",19.16485,73.23409
India,Maharashtra,Badlapur,"Katrap, Badlapur - MPCB",19.16485,73.23409
India,Maharashtra,Belapur,"CBD Belapur, Belapur - MPCB",19.0243902,73.0406721
India,Maharashtra,Bhiwandi,"Gokul Nagar, Bhiwandi - MPCB",19.309073,73.057223
India,Maharashtra,Bhiwandi,"Gokul Nagar, Bhiwandi - MPCB",19.309073,73.057223
India,Maharashtra,Bhiwandi,"Gokul Nagar, Bhiwandi - MPCB",19.309073,73.057223
India,Maharashtra,Boisar,"Khaira, Boisar - MPCB",19.786089,72.757971
India,Maharashtra,Boisar,"Khaira, Boisar - MPCB",19.786089,72.757971
India,Maharashtra,Chandrapur,"Chauhan Colony, Chandrapur - MPCB",19.962900,79.298714
India,Maharashtra,Dhule,"Deopur, Dhule - MPCB",20.918946,74.776388
India,Maharashtra,Jalgaon,"Prabhat Colony, Jalgaon - MPCB",21.001264,75.565602
India,Maharashtra,Jalna,"Old MIDC, Jalna - MPCB",19.854616,75.905894
India,Maharashtra,Jalna,"Old MIDC, Jalna - MPCB",19.854616,75.905894
India,Maharashtra,Kolhapur,"Shivaji University, Kolhapur - MPCB",16.6870449,74.2505872
India,Maharashtra,Kolhapur,"Sinchan Bhavan, Kolhapur - MPCB",16.7143745,74.2426398
India,Maharashtra,Latur,"Sawe Wadi, Latur - MPCB",18.39963,76.57452
India,Maharashtra,Latur,"Sawe Wadi, Latur - MPCB",18.39963,76.57452
India,Maharashtra,Malegaon,"Mahesh Nagar, Malegaon - MPCB",20.555712,74.529236
India,Maharashtra,Mumbai,"Bandra Kurla Complex, Mumbai - MPCB",19.065931,72.862131
India,Maharashtra,Mumbai,"Bandra Kurla Complex, Mumbai - MPCB",19.065931,72.862131
India,Maharashtra,Mumbai,"Byculla, Mumbai - BMC",18.9767,72.8380
India,Maharashtra,Mumbai,"Byculla, Mumbai - BMC",18.9767,72.8380
India,Maharashtra,Mumbai,"Chakala-Andheri East, Mumbai - IITM",19.11074,72.86084
India,Maharashtra,Mumbai,"Chakala-Andheri East, Mumbai - IITM",19.11074,72.86084
India,Maharashtra,Mumbai,"Chembur, Mumbai - MPCB",19.0364585,72.8954371
India,Maharashtra,Mumbai,"Chembur, Mumbai - MPCB",19.0364585,72.8954371
India,Maharashtra,Mumbai,"Chhatrapati Shivaji Intl. Airport (T2), Mumbai - MPCB",19.10078,72.87462
India,Maharashtra,Mumbai,"Chhatrapati Shivaji Intl. Airport (T2), Mumbai - MPCB",19.10078,72.87462
India,Maharashtra,Mumbai,"Chhatrapati Shivaji Intl. Airport (T2), Mumbai - MPCB",19.10078,72.87462
India,Maharashtra,Mumbai,"Chhatrapati Shivaji Intl. Airport (T2), Mumbai - MPCB",19.10078,72.87462
India,Maharashtra,Mumbai,"Chhatrapati Shivaji Intl. Airport (T2), Mumbai - MPCB",19.10078,72.87462
India,Maharashtra,Mumbai,"Colaba, Mumbai - MPCB",18.910000,72.820000
India,Maharashtra,Mumbai,"Ghatkopar, Mumbai - BMC",19.083694,72.920967
India,Maharashtra,Mumbai,"Ghatkopar, Mumbai - BMC",19.083694,72.920967
India,Maharashtra,Mumbai,"Ghatkopar, Mumbai - BMC",19.083694,72.920967
India,Maharashtra,Mumbai,"Ghatkopar, Mumbai - BMC",19.083694,72.920967
India,Maharashtra,Mumbai,"Kandivali East, Mumbai - MPCB",19.205800,72.868200
India,Maharashtra,Mumbai,"Kandivali West, Mumbai - BMC",19.215859,72.831718
India,Maharashtra,Mumbai,"Kherwadi_Bandra East, Mumbai - MPCB",19.0632143,72.8456324
India,Maharashtra,Mumbai,"Kherwadi_Bandra East, Mumbai - MPCB",19.0632143,72.8456324
India,Maharashtra,Mumbai,"Khindipada-Bhandup West, Mumbai - IITM",19.1653323,72.922099
India,Maharashtra,Mumbai,"Khindipada-Bhandup West, Mumbai - IITM",19.1653323,72.922099
India,Maharashtra,Mumbai,"Khindipada-Bhandup West, Mumbai - IITM",19.1653323,72.922099
India,Maharashtra,Mumbai,"Kurla, Mumbai - MPCB",19.0863,72.8888
India,Maharashtra,Mumbai,"Malad West, Mumbai - IITM",19.19709,72.82204
India,Maharashtra,Mumbai,"Malad West, Mumbai - IITM",19.19709,72.82204
India,Maharashtra,Mumbai,"Mindspace-Malad West, Mumbai - MPCB",19.1878657,72.8304069
India,Maharashtra,Mumbai,"Mindspace-Malad West, Mumbai - MPCB",19.1878657,72.8304069
India,Maharashtra,Mumbai,"Mulund West, Mumbai - MPCB",19.1750,72.9419
India,Maharashtra,Mumbai,"Navy Nagar-Colaba, Mumbai - IITM",18.897756,72.813320
India,Maharashtra,Mumbai,"Navy Nagar-Colaba, Mumbai - IITM",18.897756,72.813320
India,Maharashtra,Mumbai,"Navy Nagar-Colaba, Mumbai - IITM",18.897756,72.813320
India,Maharashtra,Mumbai,"Powai, Mumbai - MPCB",19.137500,72.915056
India,Maharashtra,Mumbai,"Powai, Mumbai - MPCB",19.137500,72.915056
India,Maharashtra,Mumbai,"Sewri, Mumbai - BMC",19.000084,72.856730
India,Maharashtra,Mumbai,"Vile Parle West, Mumbai - MPCB",19.10861,72.83622
India,Maharashtra,Mumbai,"Vile Parle West, Mumbai - MPCB",19.10861,72.83622
India,Maharashtra,Nagpur,"Ambazari, Nagpur - MPCB",21.121801,79.04952
India,Maharashtra,Nagpur,"Ambazari, Nagpur - MPCB",21.121801,79.04952
India,Maharashtra,Nagpur,"Ambazari, Nagpur - MPCB",21.121801,79.04952
India,Maharashtra,Nagpur,"Mahal, Nagpur - MPCB",21.14472,79.107595
India,Maharashtra,Nagpur,"Opp GPO Civil Lines, Nagpur - MPCB",21.152875,79.0517531
India,Maharashtra,Nashik,"Gangapur Road, Nashik - MPCB",20.0073285,73.7762427
India,Maharashtra,Nashik,"Pandav Nagari, Nashik - MPCB",19.9591346,73.7788008
India,Maharashtra,Nashik,"Pandav Nagari, Nashik - MPCB",19.9591346,73.7788008
India,Maharashtra,Navi Mumbai,"Kopripada-Vashi, Navi Mumbai - MPCB",19.090337,73.014232
India,Maharashtra,Navi Mumbai,"Kopripada-Vashi, Navi Mumbai - MPCB",19.090337,73.014232
India,Maharashtra,Navi Mumbai,"Kopripada-Vashi, Navi Mumbai - MPCB",19.090337,73.014232
India,Maharashtra,Navi Mumbai,"Mahape, Navi Mumbai - MPCB",19.1135051,73.008978
India,Maharashtra,Navi Mumbai,"Mahape, Navi Mumbai - MPCB",19.1135051,73.008978
India,Maharashtra,Navi Mumbai,"Nerul, Navi Mumbai - MPCB",19.008751,73.016620
India,Maharashtra,Navi Mumbai,"Nerul, Navi Mumbai - MPCB",19.008751,73.016620
India,Maharashtra,Navi Mumbai,"Sanpada, Navi Mumbai - MPCB",19.0575752,73.0151367
India,Maharashtra,Navi Mumbai,"Sanpada, Navi Mumbai - MPCB",19.0575752,73.0151367
India,Maharashtra,Navi Mumbai,"Sector-19A Nerul, Navi Mumbai - IITM",19.044,73.0325
India,Maharashtra,Navi Mumbai,"Sector-19A Nerul, Navi Mumbai - IITM",19.044,73.0325
India,Maharashtra,Navi Mumbai,"Sector-19A Nerul, Navi Mumbai - IITM",19.044,73.0325
India,Maharashtra,Navi Mumbai,"Sector-2E Kalamboli, Navi Mumbai - MPCB",19.02579,73.10297
India,Maharashtra,Navi Mumbai,"Sector-2E Kalamboli, Navi Mumbai - MPCB",19.02579,73.10297
India,Maharashtra,Navi Mumbai,"Tondare-Taloja, Navi Mumbai - MPCB",19.0630,73.1209
India,Maharashtra,Parbhani,"Masoom Colony, Parbhani - MPCB",19.265594,76.761463
India,Maharashtra,Parbhani,"Masoom Colony, Parbhani - MPCB",19.265594,76.761463
India,Maharashtra,Parbhani,"Masoom Colony, Parbhani - MPCB",19.265594,76.761463
India,Maharashtra,Pimpri-Chinchwad,"Park Street Wakad, Pimpri Chinchwad - MPCB",18.59051,73.77946
India,Maharashtra,Pimpri-Chinchwad,"Thergaon, Pimpri Chinchwad - MPCB",18.616318,73.765797
India,Maharashtra,Pimpri-Chinchwad,"Thergaon, Pimpri Chinchwad - MPCB",18.616318,73.765797
India,Maharashtra,Pimpri-Chinchwad,"Thergaon, Pimpri Chinchwad - MPCB",18.616318,73.765797
India,Maharashtra,Pune,"Alandi, Pune - IITM",18.675076,73.892743
India,Maharashtra,Pune,"Karve Road, Pune - MPCB",18.5011743,73.8165527
India,Maharashtra,Pune,"Katraj Dairy, Pune - MPCB",18.454450,73.854155
India,Maharashtra,Pune,"Mhada Colony, Pune - IITM",18.573040,73.927715
India,Maharashtra,Pune,"Revenue Colony-Shivajinagar, Pune - IITM",18.530085,73.849598
India,Maharashtra,Pune,"Revenue Colony-Shivajinagar, Pune - IITM",18.530085,73.849598
India,Maharashtra,Pune,"Savitribai Phule Pune University, Pune - MPCB",18.547056,73.826908
India,Maharashtra,Pune,"Savitribai Phule Pune University, Pune - MPCB",18.547056,73.826908
India,Maharashtra,Sangli,"Vijay Nagar, Sangli - MPCB", 16.5038,74.3623
India,Maharashtra,Sangli,"Vijay Nagar, Sangli - MPCB", 16.5038,74.3623
India,Maharashtra,Solapur,"Dnyaneshwar Nagar, Solapur - MPCB",17.6336264,75.9132495
India,Maharashtra,Solapur,"Dnyaneshwar Nagar, Solapur - MPCB",17.6336264,75.9132495
India,Maharashtra,Solapur,"Solapur, Solapur - MPCB",17.6599188,75.9063906
India,Maharashtra,Thane,"Pimpleshwar Mandir, Thane - MPCB",19.192056,72.9585188
India,Maharashtra,Thane,"Upvan Fort, Thane - MPCB",19.222279,72.957979
India,Maharashtra,Ulhasnagar,"Sidhi Vinayak Nagar, Ulhasnagar - MPCB",19.235581,73.159121
India,Manipur,Imphal,"DM College of Science, Imphal - Manipur PCB",24.8207389,93.9423085
India,Meghalaya,Shillong,"Lumpyngngad, Shillong - Meghalaya PCB",25.5586,91.8985
India,Mizoram,Aizawl,"Sikulpuikawn, Aizawl - Mizoram PCB",23.7176342,92.7192841
India,Mizoram,Aizawl,"Sikulpuikawn, Aizawl - Mizoram PCB",23.7176342,92.7192841
India,Nagaland,Kohima,"PWD Juction, Kohima - NPCB",25.6635413,94.0989878
India,Odisha,Angul,"Hakimapada, Angul - OSPCB",20.832874,85.104082
India,Odisha,Angul,"Hakimapada, Angul - OSPCB",20.832874,85.104082
India,Odisha,Angul,"Hakimapada, Angul - OSPCB",20.832874,85.104082
India,Odisha,Balasore,"Kalidaspur, Balasore - OSPCB",21.51161,86.89088
India,Odisha,Baripada,"Meher Colony, Baripada - OSPCB",21.941841,86.728318
India,Odisha,Bhubaneswar,"Lingraj Mandir, Bhubaneswar - OSPCB",20.240790,85.836784
India,Odisha,Brajrajnagar,"GM Office, Brajrajnagar - OSPCB",21.8004996,83.8396977
India,Odisha,Byasanagar,"Ferro Chrome Colony, Byasanagar - OSPCB",20.94185,86.11510
India,Odisha,Keonjhar,"Jagamohanpur, Keonjhar - OSPCB",21.643900,85.599355
India,Odisha,Keonjhar,"Jagamohanpur, Keonjhar - OSPCB",21.643900,85.599355
India,Odisha,Keonjhar,"Jagamohanpur, Keonjhar - OSPCB",21.643900,85.599355
India,Odisha,Keonjhar,"Jagamohanpur, Keonjhar - OSPCB",21.643900,85.599355
India,Odisha,Nayagarh,"Dabuna, Nayagarh - OSPCB",21.847279,85.416905
India,Odisha,Rairangpur,"Divisional Forest Office, Rairangpur - OSPCB",22.265816,86.174829
India,Odisha,Rairangpur,"Divisional Forest Office, Rairangpur - OSPCB",22.265816,86.174829
India,Odisha,Rourkela,"Fertilizer Township, Rourkela - OSPCB",22.18972222,84.86277778
India,Odisha,Rourkela,"Fertilizer Township, Rourkela - OSPCB",22.18972222,84.86277778
India,Odisha,Rourkela,"Fertilizer Township, Rourkela - OSPCB",22.18972222,84.86277778
India,Odisha,Rourkela,"Raghunathpali, Rourkela - OSPCB",22.220833,84.809444
India,Odisha,Suakati,"OMC Colony, Suakati - OSPCB",21.606865,85.510538
India,Odisha,Talcher,"Talcher Coalfields,Talcher - OSPCB",20.9360711,85.1707021
India,Odisha,Talcher,"Talcher Coalfields,Talcher - OSPCB",20.9360711,85.1707021
India,Odisha,Tensa,"Barsua Iron Ore Mines, Tensa - OSPCB",21.869985,85.167016
India,Odisha,Tensa,"Barsua Iron Ore Mines, Tensa - OSPCB",21.869985,85.167016
India,Odisha,Tensa,"Barsua Iron Ore Mines, Tensa - OSPCB",21.869985,85.167016
India,Puducherry,Puducherry,"Jawahar Nagar, Puducherry - PPCC",11.9309,79.8027
India,Punjab,Jalandhar,"Civil Line, Jalandhar - PPCB",31.321907,75.578914
India,Punjab,Jalandhar,"Civil Line, Jalandhar - PPCB",31.321907,75.578914
India,Punjab,Khanna,"Kalal Majra, Khanna - PPCB",30.736056 ,76.209694
India,Punjab,Ludhiana,"Punjab Agricultural University, Ludhiana - PPCB",30.9028,75.8086
India,Punjab,Ludhiana,"Punjab Agricultural University, Ludhiana - PPCB",30.9028,75.8086
India,Punjab,Mandi Gobindgarh,"RIMT University, Mandi Gobindgarh - PPCB",30.649961,76.331442
India,Punjab,Mandi Gobindgarh,"RIMT University, Mandi Gobindgarh - PPCB",30.649961,76.331442
India,Punjab,Patiala,"Model Town, Patiala - PPCB",30.349388,76.366642
India,Punjab,Patiala,"Model Town, Patiala - PPCB",30.349388,76.366642
India,Rajasthan,Ajmer,"Civil Lines,  Ajmer - RSPCB",26.470859,74.646594
India,Rajasthan,Ajmer,"Civil Lines,  Ajmer - RSPCB",26.470859,74.646594
India,Rajasthan,Ajmer,"Civil Lines,  Ajmer - RSPCB",26.470859,74.646594
India,Rajasthan,Alwar,"Moti Doongri, Alwar - RSPCB",27.554793,76.611536
India,Rajasthan,Banswara,"Rati Talai, Banswara - RSPCB",23.555190,74.440010
India,Rajasthan,Banswara,"Rati Talai, Banswara - RSPCB",23.555190,74.440010
India,Rajasthan,Baran,"Bamboliya, Baran - RSPCB",25.106006,76.469948
India,Rajasthan,Barmer,"Railway Colony, Barmer - RSPCB",25.747299,71.393989
India,Rajasthan,Barmer,"Railway Colony, Barmer - RSPCB",25.747299,71.393989
India,Rajasthan,Bharatpur,"Krishna Nagar, Bharatpur - RSPCB",27.215415,77.50873
India,Rajasthan,Bhilwara,"Pratap Nagar, Bhilwara - RSPCB",25.339605,74.618883
India,Rajasthan,Bhilwara,"Pratap Nagar, Bhilwara - RSPCB",25.339605,74.618883
India,Rajasthan,Bhiwadi,"RIICO Ind. Area III, Bhiwadi - RSPCB",28.194909,76.862296
India,Rajasthan,Bikaner,"MM Ground, Bikaner - RSPCB",28.018792,73.292658
India,Rajasthan,Bikaner,"MM Ground, Bikaner - RSPCB",28.018792,73.292658
India,Rajasthan,Bundi,"New Colony, Bundi - RSPCB",25.435774,75.644272
India,Rajasthan,Bundi,"New Colony, Bundi - RSPCB",25.435774,75.644272
India,Rajasthan,Chittorgarh,"Shastri Nagar, Chittorgarh - RSPCB",24.892047,74.623527
India,Rajasthan,Chittorgarh,"Shastri Nagar, Chittorgarh - RSPCB",24.892047,74.623527
India,Rajasthan,Chittorgarh,"Shastri Nagar, Chittorgarh - RSPCB",24.892047,74.623527
India,Rajasthan,Churu,"Subash Chowk, Churu - RSPCB",28.296139,74.961696
India,Rajasthan,Dausa,"Khatikan Mohalla, Dausa - RSPCB",26.895552,76.334753
India,Rajasthan,Dungarpur,"Bhoiwada, Dungarpur - RSPCB",23.837789,73.714926
India,Rajasthan,Hanumangarh,"Housing Board, Hanumangarh - RSPCB",29.610750,74.283608
India,Rajasthan,Jaipur,"Adarsh Nagar, Jaipur - RSPCB",26.902909,75.836858
India,Rajasthan,Jaipur,"Adarsh Nagar, Jaipur - RSPCB",26.902909,75.836858
India,Rajasthan,Jaipur,"Adarsh Nagar, Jaipur - RSPCB",26.902909,75.836858
India,Rajasthan,Jaipur,"Police Commissionerate, Jaipur - RSPCB",26.9164092,75.7994901
India,Rajasthan,Jaipur,"Police Commissionerate, Jaipur - RSPCB",26.9164092,75.7994901
India,Rajasthan,Jaipur,"Police Commissionerate, Jaipur - RSPCB",26.9164092,75.7994901
India,Rajasthan,Jaipur,"RIICO Sitapura, Jaipur - RSPCB",26.786682,75.827928
India,Rajasthan,Jaipur,"RIICO Sitapura, Jaipur - RSPCB",26.786682,75.827928
India,Rajasthan,Jaipur,"Sector-2 Murlipura, Jaipur - RSPCB",26.960669,75.771817
India,Rajasthan,Jaipur,"Shastri Nagar, Jaipur - RSPCB",26.9502929,75.730943
India,Rajasthan,Jaipur,"Shastri Nagar, Jaipur - RSPCB",26.9502929,75.730943
India,Rajasthan,Jaisalmer,"Sadar Bazar, Jaisalmer - RSPCB",26.912329,70.909168
India,Rajasthan,Jhalawar,"Rajlaxmi Nagar, Jhalawar - RSPCB",24.588397,76.172782
India,Rajasthan,Jodhpur,"Collectorate, Jodhpur - RSPCB",26.268249,73.0193853
India,Rajasthan,Jodhpur,"Collectorate, Jodhpur - RSPCB",26.268249,73.0193853
India,Rajasthan,Jodhpur,"Samrat Ashok Udhyan, Jodhpur - RSPCB",26.253384,72.976571
India,Rajasthan,Jodhpur,"Samrat Ashok Udhyan, Jodhpur - RSPCB",26.253384,72.976571
India,Rajasthan,Jodhpur,"Samrat Ashok Udhyan, Jodhpur - RSPCB",26.253384,72.976571
India,Rajasthan,Karauli,"Satyawati Vihar, Karauli - RSPCB",26.506177,77.025989
India,Rajasthan,Kota,"Dhanmandi, Kota - RSPCB",25.164090,75.858137
India,Rajasthan,Kota,"Dhanmandi, Kota - RSPCB",25.164090,75.858137
India,Rajasthan,Kota,"Nayapura, Kota - RSPCB",25.196024,75.855668
India,Rajasthan,Nagaur,"Karni Colony, Nagaur - RSPCB",27.213494,73.734444
India,Rajasthan,Nagaur,"Karni Colony, Nagaur - RSPCB",27.213494,73.734444
India,Rajasthan,Pratapgarh,"Pragati Nagar, Pratapgarh - RSPCB",24.041198,74.780702
India,Rajasthan,Pratapgarh,"Pragati Nagar, Pratapgarh - RSPCB",24.041198,74.780702
India,Rajasthan,Rajsamand,"Dhoinda, Rajsamand - RSPCB",25.036360,73.883502
India,Rajasthan,Sawai Madhopur,"Sahu Nagar, Sawai Madhopur - RSPCB",26.031443,76.359327
India,Rajasthan,Sri Ganganagar,"Old City, Sri Ganganagar - RSPCB",29.931624,73.864511
India,Rajasthan,Sri Ganganagar,"Old City, Sri Ganganagar - RSPCB",29.931624,73.864511
India,Rajasthan,Sri Ganganagar,"Old City, Sri Ganganagar - RSPCB",29.931624,73.864511
India,Rajasthan,Tonk,"Shastri Nagar, Tonk - RSPCB",26.159933,75.780517
India,Rajasthan,Udaipur,"Ashok Nagar, Udaipur - RSPCB",24.5886166,73.6321397
India,Sikkim,Gangtok,"Zero Point GICI, Gangtok - SSPCB",27.338530,88.614099
India,TamilNadu,Chennai,"Alandur Bus Depot, Chennai - CPCB",12.9099161,80.1076538
India,TamilNadu,Chennai,"Arumbakkam, Chennai - TNPCB",13.0664,80.2112 
India,TamilNadu,Chennai,"Gandhi Nagar_Ennore, Chennai - TNPCB",13.218341,80.32027
India,TamilNadu,Chennai,"Kodungaiyur, Chennai - TNPCB",13.1278,80.2642
India,TamilNadu,Chennai,"Manali, Chennai - CPCB",13.164544,80.26285
India,TamilNadu,Chennai,"Manali, Chennai - CPCB",13.164544,80.26285
India,TamilNadu,Chennai,"Perungudi, Chennai - TNPCB",12.9533,80.2357
India,TamilNadu,Chennai,"Royapuram, Chennai - TNPCB",13.1036,80.2909
India,TamilNadu,Chennai,"Royapuram, Chennai - TNPCB",13.1036,80.2909
India,TamilNadu,Chennai,"Velachery Res. Area, Chennai - CPCB",13.0052189,80.2398125
India,TamilNadu,Chennai,"Velachery Res. Area, Chennai - CPCB",13.0052189,80.2398125
India,TamilNadu,Coimbatore,"PSG College of Arts and Science, Coimbatore - TNPCB",11.0328,77.0349
India,TamilNadu,Cuddalore,"Kudikadu, Cuddalore - TNPCB",11.6829898,79.7532099
India,TamilNadu,Gummidipoondi,"Anthoni Pillai Nagar, Gummidipoondi - TNPCB",13.4127,80.1081
India,TamilNadu,Gummidipoondi,"Anthoni Pillai Nagar, Gummidipoondi - TNPCB",13.4127,80.1081
India,TamilNadu,Ooty,"Bombay Castel, Ooty - TNPCB",11.4068288,76.7138973
India,TamilNadu,Ooty,"Bombay Castel, Ooty - TNPCB",11.4068288,76.7138973
India,TamilNadu,Ramanathapuram,"Chalai Bazaar, Ramanathapuram - TNPCB",9.36399,78.831977
India,TamilNadu,Ramanathapuram,"Chalai Bazaar, Ramanathapuram - TNPCB",9.36399,78.831977
India,TamilNadu,Salem,"Sona College of Technology, Salem - TNPCB",11.679111,78.125052
India,TamilNadu,Tiruchirappalli,"St Joseph College, Tiruchirappalli - TNPCB",10.830158,78.691849
India,TamilNadu,Vellore,"Vasanthapuram, Vellore - TNPCB",12.909494,79.131861
India,TamilNadu,Virudhunagar,"Collectorate Office, Virudhunagar - TNPCB",9.559382,77.948828
India,TamilNadu,Virudhunagar,"Collectorate Office, Virudhunagar - TNPCB",9.559382,77.948828
India,Telangana,Hyderabad,"Bollaram Industrial Area, Hyderabad - TSPCB",17.540891,78.358528
India,Telangana,Hyderabad,"Bollaram Industrial Area, Hyderabad - TSPCB",17.540891,78.358528
India,Telangana,Hyderabad,"Bollaram Industrial Area, Hyderabad - TSPCB",17.540891,78.358528
India,Telangana,Hyderabad,"Central University, Hyderabad - TSPCB",17.460103,78.334361
India,Telangana,Hyderabad,"ECIL Kapra, Hyderabad - TSPCB",17.470431,78.566959
India,Telangana,Hyderabad,"ECIL Kapra, Hyderabad - TSPCB",17.470431,78.566959
India,Telangana,Hyderabad,"ECIL Kapra, Hyderabad - TSPCB",17.470431,78.566959
India,Telangana,Hyderabad,"ICRISAT Patancheru, Hyderabad - TSPCB",17.518400,78.278777
India,Telangana,Hyderabad,"ICRISAT Patancheru, Hyderabad - TSPCB",17.518400,78.278777
India,Telangana,Hyderabad,"IITH Kandi, Hyderabad - TSPCB",17.585705,78.126199
India,Telangana,Hyderabad,"Kokapet, Hyderabad - TSPCB",17.393559,78.339194
India,Telangana,Hyderabad,"Kokapet, Hyderabad - TSPCB",17.393559,78.339194
India,Telangana,Hyderabad,"Kokapet, Hyderabad - TSPCB",17.393559,78.339194
India,Telangana,Hyderabad,"Kompally Municipal Office, Hyderabad - TSPCB",17.544899,78.486949
India,Telangana,Hyderabad,"Nacharam_TSIIC IALA, Hyderabad - TSPCB",17.429398,78.569354
India,Telangana,Hyderabad,"Nacharam_TSIIC IALA, Hyderabad - TSPCB",17.429398,78.569354
India,Telangana,Hyderabad,"Ramachandrapuram, Hyderabad - TSPCB",17.528544,78.286195
India,Telangana,Hyderabad,"Ramachandrapuram, Hyderabad - TSPCB",17.528544,78.286195
India,Telangana,Hyderabad,"Sanathnagar, Hyderabad - TSPCB",17.4559458,78.4332152
India,Telangana,Hyderabad,"Zoo Park, Hyderabad - TSPCB",17.349694,78.451437
India,Tripura,Agartala,"Bardowali, Agartala - Tripura SPCB",23.8175497,91.2726974
India,Uttar_Pradesh,Agra,"Manoharpur, Agra - UPPCB",27.23711,78.01936
India,Uttar_Pradesh,Agra,"Rohta, Agra - UPPCB",27.106972,78.000111
India,Uttar_Pradesh,Agra,"Rohta, Agra - UPPCB",27.106972,78.000111
India,Uttar_Pradesh,Agra,"Sanjay Palace, Agra - UPPCB",27.19865833,78.00598056
India,Uttar_Pradesh,Agra,"Shahjahan Garden, Agra - UPPCB",27.169338,78.03582
India,Uttar_Pradesh,Agra,"Shahjahan Garden, Agra - UPPCB",27.169338,78.03582
India,Uttar_Pradesh,Firozabad,"Nagla Bhau, Firozabad - UPPCB",27.168897,78.376960
India,Uttar_Pradesh,Ghaziabad,"Loni, Ghaziabad - UPPCB",28.757294,77.278792
India,Uttar_Pradesh,Ghaziabad,"Loni, Ghaziabad - UPPCB",28.757294,77.278792
India,Uttar_Pradesh,Ghaziabad,"Sanjay Nagar, Ghaziabad - UPPCB",28.685382,77.453839
India,Uttar_Pradesh,Ghaziabad,"Sanjay Nagar, Ghaziabad - UPPCB",28.685382,77.453839
India,Uttar_Pradesh,Ghaziabad,"Vasundhara, Ghaziabad - UPPCB",28.6603346,77.3572563
India,Uttar_Pradesh,Gorakhpur,"Madan Mohan Malaviya University of Technology, Gorakhpur - UPPCB",26.730136,83.433859
India,Uttar_Pradesh,Gorakhpur,"Madan Mohan Malaviya University of Technology, Gorakhpur - UPPCB",26.730136,83.433859
India,Uttar_Pradesh,Gorakhpur,"Madan Mohan Malaviya University of Technology, Gorakhpur - UPPCB",26.730136,83.433859
India,Uttar_Pradesh,Greater Noida,"Knowledge Park - III, Greater Noida - UPPCB",28.47272,77.482000
India,Uttar_Pradesh,Greater Noida,"Knowledge Park - III, Greater Noida - UPPCB",28.47272,77.482000
India,Uttar_Pradesh,Greater Noida,"Knowledge Park - V, Greater Noida - UPPCB",28.557054,77.453663
India,Uttar_Pradesh,Greater Noida,"Knowledge Park - V, Greater Noida - UPPCB",28.557054,77.453663
India,Uttar_Pradesh,Greater Noida,"Knowledge Park - V, Greater Noida - UPPCB",28.557054,77.453663
India,Uttar_Pradesh,Greater Noida,"Knowledge Park - V, Greater Noida - UPPCB",28.557054,77.453663
India,Uttar_Pradesh,Hapur,"Anand Vihar, Hapur - UPPCB",28.725645,77.749675
India,Uttar_Pradesh,Hapur,"Anand Vihar, Hapur - UPPCB",28.725645,77.749675
India,Uttar_Pradesh,Jhansi,"Shivaji Nagar, Jhansi - UPPCB",25.4547,78.6039
India,Uttar_Pradesh,Jhansi,"Shivaji Nagar, Jhansi - UPPCB",25.4547,78.6039
India,Uttar_Pradesh,Kanpur,"FTI Kidwai Nagar, Kanpur - UPPCB",26.428282,80.327067
India,Uttar_Pradesh,Kanpur,"NSI Kalyanpur, Kanpur - UPPCB",26.509954,80.249612
India,Uttar_Pradesh,Kanpur,"NSI Kalyanpur, Kanpur - UPPCB",26.509954,80.249612
India,Uttar_Pradesh,Kanpur,"Nehru Nagar, Kanpur - UPPCB",26.4703136,80.3229863
India,Uttar_Pradesh,Khurja,"Kalindi Kunj, Khurja - UPPCB",28.2348927,77.8683002
India,Uttar_Pradesh,Khurja,"Kalindi Kunj, Khurja - UPPCB",28.2348927,77.8683002
India,Uttar_Pradesh,Lucknow,"Gomti Nagar, Lucknow - UPPCB",26.868120,81.005119
India,Uttar_Pradesh,Lucknow,"Gomti Nagar, Lucknow - UPPCB",26.868120,81.005119
India,Uttar_Pradesh,Lucknow,"Kukrail Picnic Spot-1, Lucknow - UPPCB",26.90723,80.98579
India,Uttar_Pradesh,Lucknow,"Kukrail Picnic Spot-1, Lucknow - UPPCB",26.90723,80.98579
India,Uttar_Pradesh,Lucknow,"Lalbagh, Lucknow - CPCB",26.8458805,80.9365541
India,Uttar_Pradesh,Lucknow,"Talkatora District Industries Center, Lucknow - CPCB",26.83399722,80.8917361
India,Uttar_Pradesh,Meerut,"Ganga Nagar, Meerut - UPPCB",28.999264,77.7590354
India,Uttar_Pradesh,Meerut,"Ganga Nagar, Meerut - UPPCB",28.999264,77.7590354
India,Uttar_Pradesh,Meerut,"Jai Bhim Nagar, Meerut - UPPCB",28.9535882,77.7622941
India,Uttar_Pradesh,Meerut,"Jai Bhim Nagar, Meerut - UPPCB",28.9535882,77.7622941
India,Uttar_Pradesh,Meerut,"Jai Bhim Nagar, Meerut - UPPCB",28.9535882,77.7622941
India,Uttar_Pradesh,Meerut,"Pallavpuram Phase 2, Meerut - UPPCB",29.063510,77.709723
India,Uttar_Pradesh,Moradabad,"Buddhi Vihar, Moradabad - UPPCB",28.83526,78.74460
India,Uttar_Pradesh,Moradabad,"Buddhi Vihar, Moradabad - UPPCB",28.83526,78.74460
India,Uttar_Pradesh,Moradabad,"Buddhi Vihar, Moradabad - UPPCB",28.83526,78.74460
India,Uttar_Pradesh,Moradabad,"Eco Herbal Park, Moradabad - UPPCB",28.840739,78.697531
India,Uttar_Pradesh,Moradabad,"Eco Herbal Park, Moradabad - UPPCB",28.840739,78.697531
India,Uttar_Pradesh,Moradabad,"Eco Herbal Park, Moradabad - UPPCB",28.840739,78.697531
India,Uttar_Pradesh,Moradabad,"Employment Office, Moradabad - UPPCB",28.88528,78.73880
India,Uttar_Pradesh,Moradabad,"Jigar Colony, Moradabad - UPPCB",28.856664,78.772638
India,Uttar_Pradesh,Moradabad,"Transport Nagar, Moradabad - UPPCB",28.802625,78.753728
India,Uttar_Pradesh,Moradabad,"Transport Nagar, Moradabad - UPPCB",28.802625,78.753728
India,Uttar_Pradesh,Muzaffarnagar,"New Mandi, Muzaffarnagar - UPPCB",29.4723508,77.7194031
India,Uttar_Pradesh,Muzaffarnagar,"New Mandi, Muzaffarnagar - UPPCB",29.4723508,77.7194031
India,Uttar_Pradesh,Muzaffarnagar,"New Mandi, Muzaffarnagar - UPPCB",29.4723508,77.7194031
India,Uttar_Pradesh,Noida,"Sector - 125, Noida - UPPCB",28.5447608,77.3231257
India,Uttar_Pradesh,Noida,"Sector - 62, Noida - IMD",28.6245479,77.3577104
India,Uttar_Pradesh,Noida,"Sector - 62, Noida - IMD",28.6245479,77.3577104
India,Uttar_Pradesh,Noida,"Sector-1, Noida - UPPCB",28.5898,77.3101
India,Uttar_Pradesh,Noida,"Sector-116, Noida - UPPCB",28.569230,77.393848
India,Uttar_Pradesh,Noida,"Sector-116, Noida - UPPCB",28.569230,77.393848
India,Uttar_Pradesh,Noida,"Sector-116, Noida - UPPCB",28.569230,77.393848
India,Uttar_Pradesh,Prayagraj,"Motilal Nehru NIT, Prayagraj - UPPCB",25.494,81.863
India,Uttar_Pradesh,Prayagraj,"Motilal Nehru NIT, Prayagraj - UPPCB",25.494,81.863
India,Uttar_Pradesh,Prayagraj,"Motilal Nehru NIT, Prayagraj - UPPCB",25.494,81.863
India,Uttar_Pradesh,Prayagraj,"Nagar Nigam, Prayagraj - UPPCB",25.44919916 ,81.82735986 
India,Uttar_Pradesh,Prayagraj,"Nagar Nigam, Prayagraj - UPPCB",25.44919916 ,81.82735986 
India,Uttar_Pradesh,Varanasi,"Ardhali Bazar, Varanasi - UPPCB",25.3505986,82.9083074
India,Uttar_Pradesh,Varanasi,"Bhelupur, Varanasi - UPPCB",25.301778,82.996789
India,Uttar_Pradesh,Varanasi,"Bhelupur, Varanasi - UPPCB",25.301778,82.996789
India,Uttar_Pradesh,Varanasi,"Bhelupur, Varanasi - UPPCB",25.301778,82.996789
India,Uttar_Pradesh,Varanasi,"IESD Banaras Hindu University, Varanasi - UPPCB",25.262326,82.995408
India,Uttar_Pradesh,Varanasi,"IESD Banaras Hindu University, Varanasi - UPPCB",25.262326,82.995408
India,Uttar_Pradesh,Varanasi,"Maldahiya, Varanasi - UPPCB",25.32393,82.99687
India,Uttar_Pradesh,Vrindavan,"Omex Eternity, Vrindavan - UPPCB",27.5714090,77.6557570
India,Uttar_Pradesh,Vrindavan,"Omex Eternity, Vrindavan - UPPCB",27.5714090,77.6557570
India,Uttar_Pradesh,Vrindavan,"Omex Eternity, Vrindavan - UPPCB",27.5714090,77.6557570
India,Uttarakhand,Dehradun,"Doon University, Dehradun - UKPCB",30.269444,78.044167
India,Uttarakhand,Dehradun,"Doon University, Dehradun - UKPCB",30.269444,78.044167
India,Uttarakhand,Kashipur,"Govt. Girls Inter College, Kashipur - UKPCB",29.2124114,78.9611753
India,West_Bengal,Asansol,"Asansol Court Area, Asansol - WBPCB",23.685297,86.945968
